COUNTY,CENTER,PHONE,AGES,CAPACITY,CITY,ADDR1,ADDR2,ZIP,Full Address,lon,lat
Bergen,Anshei Lubavitch Daycare Center,201-794-3770,0 to 6,42,Fair Lawn,8-09 Plaza Rd,,7410,"8-09 Plaza Rd,Fair Lawn, NJ 7410",-74.115169,40.932439
Hudson,Munchkin Village,201-395-9440,0 to 13,49,Jersey City,127 Ocean Ave,,7305,"127 Ocean Ave,Jersey City, NJ 7305",-74.0939861,40.6930431
Hudson,"Tatis Small World Learning Center, Inc.",201-601-3189,0 to 13,88,Union City,132 32 Street,,7087,"132 32 Street,Union City, NJ 7087",-74.0264923,40.7689014
Union,YM/YWHA of Union County,908-289-8112,0 to 13,386,Union,501 Green Lane,,7083,"501 Green Lane,Union, NJ 7083",-74.2458496,40.6745895
Morris,Heritage Children's Academy,973-895-2277,0 to 13,141,Randolph,1360 Sussex Tpke,,7869,"1360 Sussex Tpke,Randolph, NJ 7869",-74.5974448,40.8370631
Union,Jewish Community Center of Central N.J.,908-889-8800,0 to 13,250,Scotch Plains,1391 Martine Ave,,7076,"1391 Martine Ave,Scotch Plains, NJ 7076",-74.3653627,40.6318636
Cumberland,Cumberland Cape Atlantic YMCA,856-691-0030,0 to 13,305,Vineland,1159 E Landis Ave,,8360,"1159 E Landis Ave,Vineland, NJ 8360",-75.0016841,39.4839598
Mercer,Crossroads,609-951-4699,0 to 6,87,Princeton,225 Olden La,,8540,"225 Olden La,Princeton, NJ 8540",-74.6640954,40.3313604
Morris,Jefferson Child Care & Education Center,973-663-2704,0 to 13,109,Lake Hopatcong,29 Nolan'S Point Rd,,7849,"29 Nolan'S Point Rd,Lake Hopatcong, NJ 7849",-74.620716,40.946765
Middlesex,Raritan Valley YMCA,732-257-4114,0 to 13,146,East Brunswick,144 Tices Lane,,8816,"144 Tices Lane,East Brunswick, NJ 8816",-74.4155617,40.4527186
Essex,Hedwig Gruenewald Early Childhood Ctr. Of Cong. B'nai Israel,973-379-4040,0 to 6,94,Millburn,160 Millburn Ave,,7041,"160 Millburn Ave,Millburn, NJ 7041",-74.2928255,40.7214134
Cumberland,Upper Deerfield Pre-School,856-455-7975,0 to 13,99,Upper Deerfield Twp,1123 Hwy 77,Building 3,8302,"1123 Hwy 77,Upper Deerfield Twp, NJ 8302",-75.2066066,39.469869
Essex,"Adassa Early Childhood/Educational Center, Inc.",973-275-1122,0 to 13,54,Maplewood,737 Irvington Ave,,7040,"737 Irvington Ave,Maplewood, NJ 7040",-74.244181,40.7315843
Bergen,JCC on the Palisades Nursery School,201-569-7900,0 to 13,421,Tenafly,411 E Clinton Ave,,7670,"411 E Clinton Ave,Tenafly, NJ 7670",-73.9442668,40.9121953
Bergen,Jewish Center of Teaneck Nursery School,201-837-0837,0 to 6,115,Teaneck,815 Prince Street,,7666,"815 Prince Street,Teaneck, NJ 7666",-74.0089822,40.8853619
Bergen,Kiddie College,201-461-6818,0 to 6,63,Palisades Park,21 Fairview Street,,7650,"21 Fairview Street,Palisades Park, NJ 7650",-74.0045502,40.8467351
Bergen,Kids Interactive Day School,201-677-9222,0 to 13,150,Oakland,8 Wright Way,,7436,"8 Wright Way,Oakland, NJ 7436",-74.248398,41.005825
Bergen,KinderCare Learning Center,201-750-9590,0 to 13,180,Old Tappan,176 Old Tappan Rd,,7675,"176 Old Tappan Rd,Old Tappan, NJ 7675",-73.9784574,41.016801
Bergen,"KinderCare Learning Center, Inc.",201-891-6559,0 to 13,195,Mahwah,25 Edison Rd,,7430,"25 Edison Rd,Mahwah, NJ 7430",-74.1642467,41.0264498
Bergen,"KinderCare Learning Center, Inc.",201-505-1680,0 to 13,180,Woodcliff Lake,450 Chestnut Ridge Rd,,7677,"450 Chestnut Ridge Rd,Woodcliff Lake, NJ 7677",-74.0726582,41.041191
Bergen,"Kindercare Learning Centers, Inc.",201-634-1893,0 to 13,189,Paramus,411 Sette Dr,,7652,"411 Sette Dr,Paramus, NJ 7652",-74.0702633,40.9472081
Bergen,Montessori Early Learning Center,201-923-6197,0 to 13,90,Englewood,113 Engle Street,,7631,"113 Engle Street,Englewood, NJ 7631",-73.970376,40.8963891
Bergen,"Mustard Seed School, Inc.",201-592-7900,0 to 13,71,Palisades Park,332 E Edsall Blvd,,7650,"332 E Edsall Blvd,Palisades Park, NJ 7650",-73.984937,40.846442
Bergen,"N.E.W. Christian Academy, Inc.",201-592-8611,0 to 13,227,Palisades Park,430 Commercial Ave,,7650,"430 Commercial Ave,Palisades Park, NJ 7650",-74.000369,40.85323
Camden,KinderCare Learning Center #551,856-429-2605,0 to 13,113,Voorhees,3 Britton Pl,,8043,"3 Britton Pl,Voorhees, NJ 8043",-75.0045679,39.8471214
Camden,KinderCare Learning Center #1161,856-424-8874,0 to 13,120,Cherry Hill,1815 Springdale Rd,,8003,"1815 Springdale Rd,Cherry Hill, NJ 8003",-74.9660949,39.9042331
Camden,Congregation M'Kor Shalom Nursery,856-424-7339,0 to 6,150,Cherry Hill,850 Evesham Rd,,8003,"850 Evesham Rd,Cherry Hill, NJ 8003",-74.930933,39.873526
Camden,Early Childhood Center of Congregation Beth El,856-675-1166,0 to 6,247,Voorhees,8000 Main Street,,8043,"8000 Main Street,Voorhees, NJ 8043",-74.9450475,39.8679546
Camden,El Centro Comunal Borincano Day Care,856-541-3696,0 to 6,40,Camden,617 N 2nd Street,,8102,"617 N 2nd Street,Camden, NJ 8102",-75.1233958,39.9523815
Camden,El Centro Comunal Borincano Day Care,856-541-0201,0 to 6,165,Camden,438 Martin Luther King Blvd,,8103,"438 Martin Luther King Blvd,Camden, NJ 8103",-75.1211504,39.9421574
Camden,El Shaddai Day Care Center,856-756-0175,0 to 13,20,Camden,328 Cherry Street,,8103,"328 Cherry Street,Camden, NJ 8103",-75.1232376,39.9341175
Camden,El Shaddai Christian Day Care Center II,856-317-2233,0 to 13,40,Pennsauken,3034 Marlton Pike,,8109,"3034 Marlton Pike,Pennsauken, NJ 8109",-75.0813424,39.9396012
Camden,Family Fun Day Care,856-665-0336,0 to 6,28,Pennsauken,6002 Wayne Ave,,8110,"6002 Wayne Ave,Pennsauken, NJ 8110",-75.0565236,39.9595946
Essex,Agape Children's Academy of New Jersey,973-351-8551,0 to 13,105,Irvington,645 Chancellor Ave,,7111,"645 Chancellor Ave,Irvington, NJ 7111",-74.234425,40.714523
Essex,Alpha Day Care Center,973-395-4811,0 to 13,33,Orange,105 Main Street,,7050,"105 Main Street,Orange, NJ 7050",-74.2236278,40.7701809
Essex,Baby Love Christian Academy I Learning Center,973-677-1110,0 to 13,38,East Orange,228 S Harrison Street,,7018,"228 S Harrison Street,East Orange, NJ 7018",-74.22565,40.7609939
Essex,Beth El Nursery School,973-763-0113,0 to 6,100,South Orange,222 Irvington Ave,,7079,"222 Irvington Ave,South Orange, NJ 7079",-74.2555427,40.7420712
Bergen,New Horizons Learning Center,973-777-7794,0 to 6,80,Lodi,361 Passaic Ave,,7644,"361 Passaic Ave,Lodi, NJ 7644",-74.0940109,40.8717103
Bergen,Our Gang at Holy Name Hospital/Sniffles Club,201-833-3235,0 to 13,172,Teaneck,718 Teaneck Rd,,7666,"718 Teaneck Rd,Teaneck, NJ 7666",-74.0106982,40.8831082
Bergen,Peek-A-Boo Infant and Child Development Center,201-935-9001,0 to 13,91,Lyndhurst,103 Ridge Rd,,7071,"103 Ridge Rd,Lyndhurst, NJ 7071",-74.1151111,40.8138102
Bergen,Kradle 2 Kindergarten,201-337-0057,0 to 13,132,Oakland,95 Bauer Dr,,7436,"95 Bauer Dr,Oakland, NJ 7436",-74.244611,41.002858
Bergen,The Learning Place Child Care Center,201-343-3077,0 to 6,95,Hackensack,400 Summit Ave,,7601,"400 Summit Ave,Hackensack, NJ 7601",-74.0527798,40.8969197
Bergen,The Learning Place of Dumont,201-387-0797,0 to 6,60,Dumont,75 W Madison Ave,,7628,"75 W Madison Ave,Dumont, NJ 7628",-73.997611,40.940053
Bergen,The Learning Experience,201-327-0800,0 to 13,180,Ramsey,160 N Franklin Tpke,,7446,"160 N Franklin Tpke,Ramsey, NJ 7446",-74.1336325,41.0633413
Bergen,Leonard Johnson Day Nursery,201-568-0817,0 to 13,180,Englewood,44 Armory Street,,7631,"44 Armory Street,Englewood, NJ 7631",-73.9798886,40.8948043
Camden,First Presbyterian Church Nursery School,856-429-0609,0 to 6,139,Haddonfield,20 Kings Hwy -East,,8033,"20 Kings Hwy -East,Haddonfield, NJ 8033",-75.0347164,39.8960752
Camden,The Goddard School #20,856-346-1234,0 to 13,120,Voorhees,1211 Haddonfield-Berlin Rd,,8043,"1211 Haddonfield-Berlin Rd,Voorhees, NJ 8043",-74.9516511,39.8240725
Camden,The Goddard School,856-566-5600,0 to 13,120,Laurel Springs,1167 Chews Landing Rd,,8021,"1167 Chews Landing Rd,Laurel Springs, NJ 8021",-75.0346059,39.818757
Camden,Haddonfield United Methodist Church MMO,856-429-0403,0 to 6,30,Haddonfield,29 Warwick Rd,,8033,"29 Warwick Rd,Haddonfield, NJ 8033",-75.0370164,39.8945504
Camden,Haddon Learning Center,856-858-7733,0 to 13,120,Oaklyn,220 W Clinton Ave,,8107,"220 W Clinton Ave,Oaklyn, NJ 8107",-75.0828227,39.9010782
Camden,The Happy Child Learning Center,856-614-0010,0 to 13,42,Camden,1051-1053 Haddon Ave,,8103,"1051-1053 Haddon Ave,Camden, NJ 8103",-75.1064608,39.9341976
Camden,"Hispanic Counseling and Family Services of NJ, Inc.",856-964-3883,0 to 13,60,Camden,3908 Westfield Ave,,8105,"3908 Westfield Ave,Camden, NJ 8105",-75.072519,39.953819
Camden,"Inquiring Minds Learning Center, Inc.",856-753-0220,0 to 13,65,Atco,45 E Taunton Rd,,8004,"45 E Taunton Rd,Atco, NJ 8004",-74.914434,39.7742549
Camden,Joyful Sounds,856-627-7800,0 to 6,30,Clementon,260 White Horse Ave,,8021,"260 White Horse Ave,Clementon, NJ 8021",-74.989249,39.812461
Essex,The Blessed Day Care Center,973-761-4768,0 to 13,63,Maplewood,1033 Chancellor Ave,,7040,"1033 Chancellor Ave,Maplewood, NJ 7040",-74.2508707,40.7228144
Essex,"Bobbie's Babies Child Care and Family Enrichment Center,LLC",973-353-0102,0 to 13,30,Newark,744 Broad Street,,7102,"744 Broad Street,Newark, NJ 7102",-74.1707927,40.7366887
Essex,"Busy Bee Academy, Inc.",973-882-8687,0 to 6,58,Fairfield,390 Fairfield Rd,,7004,"390 Fairfield Rd,Fairfield, NJ 7004",-74.279874,40.885436
Essex,Canaa Day Care Center,973-344-6775,0 to 13,48,Newark,205 Thomas Street,,7114,"205 Thomas Street,Newark, NJ 7114",-74.1717084,40.721573
Essex,Carlotta's Kids #2,973-414-1050,0 to 13,19,East Orange,239 Freeway Drive E,,7018,"239 Freeway Drive E,East Orange, NJ 7018",-74.2101767,40.7594426
Essex,"The Centre, Inc.",973-242-0022,0 to 13,180,Newark,23-35 Elizabeth Ave,,7108,"23-35 Elizabeth Ave,Newark, NJ 7108",-74.1880235,40.7221
Essex,The Children's Studio,973-746-6455,0 to 6,34,Upper Montclair,289 Park Street,,7043,"289 Park Street,Upper Montclair, NJ 7043",-74.2041279,40.8333445
Essex,The Child Care Center at Newark Beth Israel Medical Center,973-926-3999,0 to 6,100,Newark,176 Lyons Ave,,7112,"176 Lyons Ave,Newark, NJ 7112",-74.2127847,40.70935
Bergen,Little Learners Child Care Center,201-945-6838,0 to 6,60,Ridgefield,691 Prospect Ave,Zion Lutheran Church,7657,"691 Prospect Ave,Ridgefield, NJ 7657",-74.0027544,40.8377226
Bergen,Little Ferry Nursery School,201-440-8525,0 to 13,57,Little Ferry,165 Liberty Street,,7643,"165 Liberty Street,Little Ferry, NJ 7643",-74.0433344,40.8487867
Bergen,Little Tykes Nursery School,973-340-8470,0 to 13,75,Lodi,84 Corabelle Ave,,7644,"84 Corabelle Ave,Lodi, NJ 7644",-74.0900149,40.877189
Bergen,"The Little School, LLC",201-689-0034,0 to 13,60,Waldwick,40 Franklin Tpke,,7463,"40 Franklin Tpke,Waldwick, NJ 7463",-74.1204623,41.0105695
Bergen,"Loving Touch Nursery School, Inc.",201-722-8500,0 to 13,89,Hillsdale,365 Broadway,,7642,"365 Broadway,Hillsdale, NJ 7642",-74.042598,41.011851
Bergen,Margaret P. Muscarelle Child Development Center,973-478-3080,0 to 13,150,Garfield,1 Walnut Street,,7026,"1 Walnut Street,Garfield, NJ 7026",-74.1044087,40.8822732
Bergen,The Meadow's School,201-935-2112,0 to 13,204,Rutherford,102 Borough Street,,7070,"102 Borough Street,Rutherford, NJ 7070",-74.0989629,40.8187818
Camden,JumpStart Academy,609-567-3188,0 to 13,175,Sicklerville,23 Railroad Ave,,8081,"23 Railroad Ave,Sicklerville, NJ 8081",-74.897505,39.713548
Burlington,Goddard School,609-387-0311,0 to 13,148,Burlington Twp,1750 Bustleton Rd,,8016,"1750 Bustleton Rd,Burlington Twp, NJ 8016",-74.8187757,40.0817322
Burlington,Gramma's School House,856-829-6365,0 to 13,64,Cinnaminson,2118 Branch Pike,,8077,"2118 Branch Pike,Cinnaminson, NJ 8077",-75.0062,39.9882
Burlington,"Hickory Woods Child Care, Inc.",609-387-9531,0 to 6,15,Burlington,506 Elbow La,,08016-4132,"506 Elbow La,Burlington, NJ 08016-4132",-74.8479046,40.037218
Burlington,"The Joy of Learning Child Care Center, Inc.",856-764-3383,0 to 13,120,Delran,2902 Route 130 N,Tenby Plaza,8075,"2902 Route 130 N,Delran, NJ 8075",-74.9684213,40.0083221
Burlington,Just Children,856-234-8687,0 to 6,79,Mount Laurel,14000 J Commerce Parkway,,8054,"14000 J Commerce Parkway,Mount Laurel, NJ 8054",-74.9401067,39.9191531
Burlington,Just Children,856-840-0880,0 to 13,99,Mount Laurel,1001 Briggs Rd,Suite 260,8054,"1001 Briggs Rd,Mount Laurel, NJ 8054",-74.8987189,39.9742105
Burlington,Just Children,856-642-7676,0 to 13,184,Mount Laurel,2042 Briggs Rd,,8054,"2042 Briggs Rd,Mount Laurel, NJ 8054",-74.8960546,39.9637615
Burlington,Just Children,609-714-2244,0 to 13,174,Medford,130 Medford-Mt Holly Rd,,8055,"130 Medford-Mt Holly Rd,Medford, NJ 8055",-74.8254599,39.9113437
Burlington,Kid Academy Learning Center,609-261-5512,0 to 13,179,Westampton,798 Woodlane Rd,,8060,"798 Woodlane Rd,Westampton, NJ 8060",-74.8044848,40.0111057
Burlington,KidAcademy Learning Center,856-866-2060,0 to 13,115,Mount Laurel,7000 Atrium Way,,8054,"7000 Atrium Way,Mount Laurel, NJ 8054",-74.9559967,39.9153295
Passaic,"Ben Samuels Children's Center, Montclair State University",973-655-7177,0 to 13,200,Little Falls,80 Clove Rd,,7424,"80 Clove Rd,Little Falls, NJ 7424",-74.1989963,40.8673142
Essex,Christ Church Nur Sch & Drop-In-Center,973-379-6549,0 to 6,180,Short Hills,30 East Lane,,7078,"30 East Lane,Short Hills, NJ 7078",-74.3239513,40.7314416
Essex,Christian Family Day Care Center,973-673-9200,0 to 13,88,Orange,17 N Essex Ave,,7050,"17 N Essex Ave,Orange, NJ 7050",-74.2306018,40.7731493
Essex,Le Petite Academy,973-378-3500,0 to 13,84,Maplewood,1529 Springfield Ave,,7040,"1529 Springfield Ave,Maplewood, NJ 7040",-74.2537337,40.7227607
Essex,Lil Tykes Learning Center,973-676-1000,0 to 6,57,East Orange,385 Tremont Ave,,7018,"385 Tremont Ave,East Orange, NJ 7018",-74.2361139,40.752661
Essex,Bright Horizons at Roseland,973-992-2901,0 to 13,120,Roseland,3 Becker Farm Rd,,7068,"3 Becker Farm Rd,Roseland, NJ 7068",-74.3083842,40.8189194
Essex,Little Angels Nursery School,973-661-0537,0 to 6,60,Nutley,188 Washington Ave,,7110,"188 Washington Ave,Nutley, NJ 7110",-74.144599,40.812322
Essex,Little Tots Academy,973-597-0778,0 to 6,77,Livingston,30-34 Okner Parkway,,7039,"30-34 Okner Parkway,Livingston, NJ 7039",-74.354437,40.800778
Essex,The Little Ones,973-395-2727,0 to 13,217,East Orange,43 Prospect Street,,7017,"43 Prospect Street,East Orange, NJ 7017",-74.216969,40.768191
Bergen,Montessori of East Rutherford,201-896-0280,0 to 6,90,East Rutherford,144 Boiling Springs Ave,,7073,"144 Boiling Springs Ave,East Rutherford, NJ 7073",-74.0981996,40.8327986
Bergen,Bell's Little Learners Pre-School,201-843-9292,0 to 6,85,Paramus,70 Spring Valley Rd,,7652,"70 Spring Valley Rd,Paramus, NJ 7652",-74.0593219,40.9225662
Bergen,Bergen Early Learning Alliance,201-343-6000,0 to 6,73,Hackensack,284 Hackensack Ave Rear,Bldg,7601,"284 Hackensack Ave Rear,Hackensack, NJ 7601",-74.0434736,40.8859325
Bergen,"Greater Bergen Community Action, Inc.",201-384-9885,0 to 6,192,Bergenfield,100 Portland Ave,,7621,"100 Portland Ave,Bergenfield, NJ 7621",-73.9980884,40.9243638
Burlington,KinderCare Learning Center #1169,856-778-1948,0 to 13,125,Mount Laurel,641 S Church Street,,8054,"641 S Church Street,Mount Laurel, NJ 8054",-74.9398398,39.9456455
Burlington,KinderCare Learning Center #229,609-871-2110,0 to 13,96,Burlington,2004 Salem Rd,,8016,"2004 Salem Rd,Burlington, NJ 8016",-74.8755772,40.0475974
Burlington,KinderCare Learning Center #227,609-267-6878,0 to 13,60,Lumberton,240 Madison Ave,,8048,"240 Madison Ave,Lumberton, NJ 8048",-74.79727,39.983781
Burlington,KinderCare Learning Center,609-953-9111,0 to 13,172,Medford,411 Stokes Rd,,8055,"411 Stokes Rd,Medford, NJ 8055",-74.8155949,39.8780293
Burlington,The Laurel Tree Academy,856-273-1400,0 to 13,127,Mount Laurel,4106 Church Rd,,8054,"4106 Church Rd,Mount Laurel, NJ 8054",-74.9580484,39.9245831
Burlington,Learn A Way Child Development Center,609-267-2229,0 to 6,35,Hainesport,1015 Deacon Rd,,8036,"1015 Deacon Rd,Hainesport, NJ 8036",-74.817933,39.990818
Burlington,"Little Darlings of Mt. Laurel, Inc.",856-787-0737,0 to 13,124,Mount Laurel,624 Moorestown - Mt. Laurel Rd,,8054,"624 Moorestown - Mt. Laurel Rd,Mount Laurel, NJ 8054",-74.9306438,39.9608998
Burlington,Medford Day Care,609-953-3736,0 to 13,60,Southampton,1633 State Hwy #70,,8088,"1633 State Hwy #70,Southampton, NJ 8088",-79.5637036,41.0998237
Burlington,Moorestown Children's School,856-235-9040,0 to 13,30,Moorestown,760 Garwood Rd,,8057,"760 Garwood Rd,Moorestown, NJ 8057",-74.9278748,39.9999451
Burlington,Peppermint Tree Too Nursery School,609-261-2273,0 to 13,60,Lumberton,725 Eayrestown Road,,8048,"725 Eayrestown Road,Lumberton, NJ 8048",-74.782231,39.9746049
Bergen,Beth Rishon Nursery School,201-891-4466,0 to 6,90,Wyckoff,585 Russell Ave,,7481,"585 Russell Ave,Wyckoff, NJ 7481",-74.1831535,40.9922341
Bergen,"The Brightwell Center For Children, LLC",201-833-8848,0 to 6,57,Teaneck,1410 Teaneck Rd,,7666,"1410 Teaneck Rd,Teaneck, NJ 7666",-73.999796,40.8999691
Bergen,Bright Horizons Children's Center-Copper,201-438-1545,0 to 13,110,Lyndhurst,9 Polito Ave,,7071,"9 Polito Ave,Lyndhurst, NJ 7071",-74.1056985,40.8095173
Bergen,Bright Learning Center,201-944-8891,0 to 6,43,Palisades Park,515 Broad Ave,,7650,"515 Broad Ave,Palisades Park, NJ 7650",-73.9945474,40.8531103
Bergen,Building Blocks Child Center 1,201-447-3065,0 to 13,120,Waldwick,136 Wyckoff Ave,,7463,"136 Wyckoff Ave,Waldwick, NJ 7463",-74.131604,41.01018
Bergen,Carousel Early Learning Centers,201-722-9822,0 to 13,178,Westwood,200 3rd Ave,,7675,"200 3rd Ave,Westwood, NJ 7675",-74.0354957,40.9896742
Bergen,Carousel Early Learning Centers,201-767-0784,0 to 6,180,Norwood,535 Walnut Street,,7648,"535 Walnut Street,Norwood, NJ 7648",-73.9505058,40.9989108
Bergen,Children's Learning Center of Wyckoff,201-847-8400,0 to 13,217,Mahwah,11 Leighton Pl,,7430,"11 Leighton Pl,Mahwah, NJ 7430",-74.1646322,41.0252784
Bergen,"Children's Learning Center, Inc.",201-941-7277,0 to 13,60,Fairview,295 Hudson Pl,,7022,"295 Hudson Pl,Fairview, NJ 7022",-73.9994555,40.8098326
Bergen,"Children's Aid & Family Services Inc,",201-261-5970,0 to 13,260,Paramus,200 Robin Rd,Turrell Cc & Early Lea,07652-1414,"200 Robin Rd,Paramus, NJ 07652-1414",-74.0737808,40.9327613
Bergen,The Children's Studio,201-935-5269,0 to 13,135,East Rutherford,135 Ann Street,,7073,"135 Ann Street,East Rutherford, NJ 7073",-74.0954718,40.83135
Burlington,Project TEACH - Burlington,609-267-7595,0 to 6,26,Mount Holly,704 Woodlane Rd,,8060,"704 Woodlane Rd,Mount Holly, NJ 8060",-74.8224,40.013
Burlington,Under the Sun Learning Center of Marlton,856-985-8777,0 to 13,181,Marlton,701 Lippincott Dr,,8053,"701 Lippincott Dr,Marlton, NJ 8053",-74.9264,39.8822
Camden,Mother Goose Learning Center,856-227-0012,0 to 13,112,Blackwood,200 Little Gloucester Rd,,8012,"200 Little Gloucester Rd,Blackwood, NJ 8012",-75.0536836,39.8258529
Bergen,Child Development Center at Parsons Pond,201-269-1800,0 to 13,210,Franklin Lakes,800 Parsons Pond Dr,,07417-2603,"800 Parsons Pond Dr,Franklin Lakes, NJ 07417-2603",-74.18463,41.0218
Bergen,The Children's Place Early Care & Learning Center,201-507-9899,0 to 6,28,Rutherford,276 Park Ave,,7070,"276 Park Ave,Rutherford, NJ 7070",-74.1125743,40.8243045
Bergen,Christian Child Care Center,201-791-4788,0 to 6,35,Elmwood Park,21 Church Street,,7407,"21 Church Street,Elmwood Park, NJ 7407",-74.1203001,40.901004
Bergen,Creative Kingdom,201-562-2817,0 to 6,28,Hackensack,170 Prospect Ave,,7601,"170 Prospect Ave,Hackensack, NJ 7601",-74.0551024,40.8887842
Bergen,Early Learner's Child Care,201-229-1360,0 to 13,156,Little Ferry,201 Redneck Ave,,7643,"201 Redneck Ave,Little Ferry, NJ 7643",-74.0506588,40.8479248
Bergen,Episcopal Child Care Services,201-768-3207,0 to 6,80,Norwood,66 Summit Street,,7648,"66 Summit Street,Norwood, NJ 7648",-73.9633449,40.992222
Camden,Naudain Academy - A Montessori School,856-751-1510,0 to 6,112,Voorhees,6 School Lane,,8043,"6 School Lane,Voorhees, NJ 8043",-74.9258631,39.8601604
Camden,"The Neighborhood Center, Inc.",856-365-5295,0 to 13,174,Camden,278 Kaighns Ave,,8103,"278 Kaighns Ave,Camden, NJ 8103",-75.1245642,39.9301515
Camden,"Partners In Parenting, Child Development Center",856-614-7667,0 to 6,20,Camden,1700 Park Blvd,Camden High School,8103,"1700 Park Blvd,Camden, NJ 8103",-75.0980891,39.9344999
Camden,Partners In Parenting II,856-966-6616,0 to 6,26,Camden,3100 Federal Street,C/O Woodrow Wilson High School,8105,"3100 Federal Street,Camden, NJ 8105",-75.0784327,39.947227
Camden,Pennie's Place Child Care,856-546-0530,0 to 6,120,Audubon,256 & 266 White Horse Pike,,8106,"256 & 266 White Horse Pike,Audubon, NJ 8106",-91.4795138,36.551766
Camden,The Pre-School at Temple Emanuel,856-489-0034,0 to 13,122,Cherry Hill,1101 Springdale Rd,,8003,"1101 Springdale Rd,Cherry Hill, NJ 8003",-74.9691992,39.8807651
Camden,Providence Pediatric Medical DayCare,856-338-0900,0 to 6,60,Camden,1000 Atlantic Ave,,8104,"1000 Atlantic Ave,Camden, NJ 8104",-75.108323,39.9288302
Camden,Colors of the Rainbow Learning Center,856-667-0962,0 to 13,30,Cherry Hill,401 N Kings Hwy,,8002,"401 N Kings Hwy,Cherry Hill, NJ 8002",-74.9955467,39.9272926
Morris,"Morris County EduCare and Enrichment Center, LLC",973-713-0778,0 to 13,128,Succasunna,77 Sunset Strip,,7876,"77 Sunset Strip,Succasunna, NJ 7876",-74.6468729,40.8686977
Bergen,The First Step Nursery Sch & Day Care C.,201-944-9642,0 to 13,101,Fort Lee,2 Executive Dr,,7024,"2 Executive Dr,Fort Lee, NJ 7024",-73.9727603,40.8655362
Bergen,Four Seasons Early Learning Center,201-845-9044,0 to 6,90,Saddle Brook,486 Market Street,,7663,"486 Market Street,Saddle Brook, NJ 7663",-74.10056,40.897032
Bergen,Future's Best Nursery Academy,201-585-9400,0 to 13,98,Fort Lee,1435-10th Street,,7024,"1435-10th Street,Fort Lee, NJ 7024",-73.9832376,40.849053
Bergen,Future's Finest Day Care,201-845-6400,0 to 6,56,Rochelle Park,70 W Passaic Street,,7662,"70 W Passaic Street,Rochelle Park, NJ 7662",-74.075443,40.9111835
Bergen,Saddle Acres Schools - Englewood,201-569-0055,0 to 13,60,Englewood,106 Grand Ave,,7631,"106 Grand Ave,Englewood, NJ 7631",-73.9760143,40.8897016
Bergen,Saint Alban's Pre-School,201-337-5928,0 to 6,80,Oakland,1 Church La,,7436,"1 Church La,Oakland, NJ 7436",-74.2095184,41.0367773
Bergen,"Sara's Pre-School, Inc.",201-445-8980,0 to 13,128,Ridgewood,303 Prospect Street,,7450,"303 Prospect Street,Ridgewood, NJ 7450",-74.1150562,40.9713492
Bergen,Sarkis & Siran Gabrellian C.C.&Lrng.Ctr.,551-996-2987,0 to 13,253,Hackensack,30 Prospect Ave,,7601,"30 Prospect Ave,Hackensack, NJ 7601",-74.0555963,40.883869
Cumberland,"Little Lamb Preschool-Keener Kids, Inc.",856-692-5390,0 to 13,168,Vineland,1005 E Wheat Rd,,8360,"1005 E Wheat Rd,Vineland, NJ 8360",-75.004976,39.510262
Cumberland,Millville Day Care Center,856-825-9364,0 to 13,283,Millville,911 Columbia Ave,,8332,"911 Columbia Ave,Millville, NJ 8332",-75.046228,39.403305
Cumberland,Nazarene Acres Christian School,856-451-8516,0 to 13,105,Bridgeton,350 W Park Dr,,8302,"350 W Park Dr,Bridgeton, NJ 8302",-75.269637,39.435414
Cumberland,New Horizon's Child Enrichment Center,856-455-8377,0 to 6,84,Bridgeton,240 Walnut Street,,8302,"240 Walnut Street,Bridgeton, NJ 8302",-75.22699,39.435442
Cumberland,No More Tears,856-447-3312,0 to 13,51,Millville,3006 Cedarville Rd,,8332,"3006 Cedarville Rd,Millville, NJ 8332",-75.104884,39.364721
Cumberland,"Remsterville Learning Center-Next Generation, Inc.",856-455-7133,0 to 6,130,Bridgeton,Route 77 & Silverlake Rd,,8302,"Route 77 & Silverlake Rd,Bridgeton, NJ 8302",-77.4056161,39.6219007
Cumberland,Tiny Tots Pre-School & Child Care Center,856-794-4886,0 to 6,153,Vineland,158 E Elmer Rd,,8360,"158 E Elmer Rd,Vineland, NJ 8360",-75.025093,39.460523
Camden,"Respond, Inc-Bank Street Day Care",856-963-9155,0 to 6,120,Camden,155 Marlton Ave,,8102,"155 Marlton Ave,Camden, NJ 8102",-75.0902858,39.9435248
Camden,"Respond, Inc. - Infant Center",856-966-8282,0 to 6,120,Camden,309 Vine Street,,8102,"309 Vine Street,Camden, NJ 8102",-75.121289,39.9524231
Camden,"Respond, Inc-Winslow Day Care Center",609-567-0020,0 to 13,90,Winslow,Hall & Albertson Rd S,,8095,"Hall & Albertson Rd S,Winslow, NJ 8095",11.9688029,51.4969802
Bergen,Small Wonder,201-246-7700,0 to 6,65,North Arlington,9 Forest Street,,7031,"9 Forest Street,North Arlington, NJ 7031",-74.1313197,40.7786107
Bergen,Small World Child Development Center,201-445-1090,0 to 13,76,Waldwick,94 Crescent Ave,,7463,"94 Crescent Ave,Waldwick, NJ 7463",-74.1400759,41.01408
Bergen,"Storybook Learning Center, LLC",201-933-0580,0 to 13,60,Rutherford,56 W Passaic Ave,,7070,"56 W Passaic Ave,Rutherford, NJ 7070",-74.1092711,40.8274792
Bergen,Take My Hand Inc,201-585-1194,0 to 6,100,Leonia,181 Fort Lee Rd,,7605,"181 Fort Lee Rd,Leonia, NJ 7605",-73.9905481,40.8637786
Burlington,Cinnamon Sticks Learning Center,856-303-2200,0 to 13,100,Cinnaminson,600 Route 130 N,,8077,"600 Route 130 N,Cinnaminson, NJ 8077",-74.9977013,39.9940321
Burlington,The Early Childhood Center at Adath Emanu-el,856-608-1200,0 to 6,100,Mount Laurel,205 Elbo La,,8054,"205 Elbo La,Mount Laurel, NJ 8054",-74.8975024,39.9297197
Burlington,Education Station Child Development Center,609-268-0769,0 to 13,67,Shamong,107 Indian Mills Rd,,8088,"107 Indian Mills Rd,Shamong, NJ 8088",-74.746,39.7968
Burlington,"Excel Learning Center, Inc.",856-596-2224,0 to 13,126,Marlton,74 E Main Street,,8053,"74 E Main Street,Marlton, NJ 8053",-74.9156865,39.8903695
Burlington,Excel Learning Center,856-608-9000,0 to 13,195,Mount Laurel,1401 S Church Street,,8054,"1401 S Church Street,Mount Laurel, NJ 8054",-74.9254,39.9176
Burlington,YMCA Childcare at Mt. Laurel,856-234-6200,0 to 6,93,Mount Laurel,59 Centerton Road,,8054,"59 Centerton Road,Mount Laurel, NJ 8054",-74.9118396,39.9721215
Camden,"Respond, Inc. - North Camden Child Development Center",856-966-9081,0 to 6,127,Camden,548-554 State Street,,8102,"548-554 State Street,Camden, NJ 8102",-75.117446,39.952289
Camden,Saint Andrew's Nursery Sch and Kindergtn,856-429-4470,0 to 6,150,Cherry Hill,327 Marlton Pike West,,8002,"327 Marlton Pike West,Cherry Hill, NJ 8002",-75.0141391,39.9141659
Camden,St. John Baptist Church Youth Dev. Ctr.,856-365-3385,0 to 6,60,Camden,30th & Howell Streets,,8105,"30th & Howell Streets,Camden, NJ 8105",-75.3135622,43.1074419
Camden,Kiddie Academy of Runnemede,856-939-1717,0 to 13,147,Runnemede,835 E Clements Bridge Rd,,8078,"835 E Clements Bridge Rd,Runnemede, NJ 8078",-75.0637878,39.8571827
Camden,Temple Beth Sholom Pre-School,856-751-0994,0 to 6,120,Cherry Hill,1901 Kresson Rd,,8003,"1901 Kresson Rd,Cherry Hill, NJ 8003",-74.9544154,39.8754983
Burlington,Fun N' Learn Child Care Center,609-893-9900,0 to 13,63,Browns Mills,530 Lakehurst Rd,,8015,"530 Lakehurst Rd,Browns Mills, NJ 8015",-74.5558636,39.9547522
Burlington,The Goddard School of Mount Laurel,856-727-4222,0 to 13,131,Mount Laurel,2026 D Briggs Rd,,8054,"2026 D Briggs Rd,Mount Laurel, NJ 8054",-74.8972149,39.9666234
Burlington,Goddard School of Medford,609-714-8686,0 to 13,150,Medford,10 Jennings Rd,,8055,"10 Jennings Rd,Medford, NJ 8055",-74.835065,39.9043605
Burlington,The Goddard School - Bordentown,609-291-1800,0 to 13,124,Bordentown,231crosswicks Rd Suite 15,,8505,"231crosswicks Rd Suite 15,Bordentown, NJ 8505",-74.692587,40.144141
Burlington,The Goddard School,856-461-2250,0 to 13,147,Delran,90 Hartford Rd,,8075,"90 Hartford Rd,Delran, NJ 8075",-74.9341,40.0111
Bergen,Temple Beth El Nursery School,201-768-3726,0 to 6,120,Closter,221 Schraalenburgh Rd,,7624,"221 Schraalenburgh Rd,Closter, NJ 7624",-73.9820517,40.9714109
Bergen,Temple Emanuel Early Childhood Program,201-391-8329,0 to 6,132,Woodcliff Lake,87 Overlook Dr,,7677,"87 Overlook Dr,Woodcliff Lake, NJ 7677",-74.0724185,41.0194032
Bergen,"Tender Years Infant Care, LLC",201-796-8686,0 to 13,45,Fair Lawn,2-61 Saddle River Rd,,7410,"2-61 Saddle River Rd,Fair Lawn, NJ 7410",-74.094883,40.930124
Bergen,"TLC Plus II, Inc.",201-403-6262,0 to 6,90,Saddle Brook,17 Platt Ave,,7633,"17 Platt Ave,Saddle Brook, NJ 7633",-74.0822632,40.8994888
Bergen,Tutor Time Child Care Learning Center,201-398-9611,0 to 13,256,Saddle Brook,368 North Midland Ave,,7663,"368 North Midland Ave,Saddle Brook, NJ 7663",-74.1061768,40.910064
Camden,Terri's Tykes at U.S. Vision Care,856-228-1001,0 to 13,74,Glendora,10 Harmon Dr,,8029,"10 Harmon Dr,Glendora, NJ 8029",-75.0757802,39.829437
Camden,Forever Young Child Care Learning Center,856-783-1400,0 to 13,194,Lindenwold,610 Chews Landing Rd,,8021,"610 Chews Landing Rd,Lindenwold, NJ 8021",-75.017529,39.811507
Camden,Under the Sun Learning Center,856-783-9715,0 to 13,110,Stratford,44 Berlin Ave,,8084,"44 Berlin Ave,Stratford, NJ 8084",-75.00197,39.8320289
Camden,Virtua Child Development Center,856-325-5552,0 to 13,156,Voorhees,90 Carnie Blvd,,8043,"90 Carnie Blvd,Voorhees, NJ 8043",-74.9581705,39.8631381
Cape May,Cape Regional Medical Center Auxiliary Early Education Cente,609-463-2500,0 to 13,113,Cape May Court House,2 Stone Harbor Blvd,,8210,"2 Stone Harbor Blvd,Cape May Court House, NJ 8210",-74.8168417,39.0875376
Atlantic,Little Flyers Academy Child Care Center,609-485-5429,0 to 6,56,Atlantic City,Faa William J. Hughes Tech Ctr,Atlantic City Airport,8405,"Faa William J. Hughes Tech Ctr,Atlantic City, NJ 8405",-74.4229266,39.3642834
Bergen,West Side Infant Day Care Center,201-568-2571,0 to 6,15,Englewood,192 W Demarest Ave,,7631,"192 W Demarest Ave,Englewood, NJ 7631",-73.9806577,40.9007268
Bergen,Wyckoff Family YMCA,201-891-2081,0 to 13,347,Wyckoff,691 Wyckoff Ave,,7481,"691 Wyckoff Ave,Wyckoff, NJ 7481",-74.1744779,41.015153
Bergen,Wyckoff Family YMCA at Mahwah,201-529-4819,0 to 6,75,Mahwah,60 Ridge Rd : Bldg#8,,7430,"60 Ridge Rd : Bldg#8,Mahwah, NJ 7430",-73.3834042,41.1923689
Bergen,Wyckoff Family YMCA at Franklin Lakes,201-847-8030,0 to 6,69,Franklin Lakes,730 Franklin Lakes Rd,,7417,"730 Franklin Lakes Rd,Franklin Lakes, NJ 7417",-74.206721,40.993158
Bergen,Wyckoff Family YMCA at Christian Health Care Center,201-848-4499,0 to 6,85,Wyckoff,301 Sicomac Ave,,7481,"301 Sicomac Ave,Wyckoff, NJ 7481",-74.1723954,40.9812871
Cape May,"The Children's Place of Music & Learning, Inc.",609-398-4225,0 to 13,67,Ocean City,145-147 Haven Ave,,8226,"145-147 Haven Ave,Ocean City, NJ 8226",-74.5679369,39.287799
Cape May,For Kids Only Pre-School Learning Center,609-522-4010,0 to 6,30,North Wildwood,2300 New York Ave,,8260,"2300 New York Ave,North Wildwood, NJ 8260",-74.809977,38.997087
Cape May,For Kids Only Country School,609-884-1156,0 to 6,30,Cape May,662 Townbank Rd,,8204,"662 Townbank Rd,Cape May, NJ 8204",-74.9338099,38.977101
Cape May,Over The Rainbow Nursery School & Day Care Center,609-886-4661,0 to 13,22,Cape May Court House,303 Route 47 S,,8210,"303 Route 47 S,Cape May Court House, NJ 8210",-74.8979276,39.0669272
Cape May,Project TEACH - Cape May,609-463-4870,0 to 6,15,Cape May Court House,131 Crest Haven Rd,,8210,"131 Crest Haven Rd,Cape May Court House, NJ 8210",-74.799133,39.098768
Cape May,Seashore Children's Learning Center,609-886-5155,0 to 13,92,Cape May,446 Seashore Rd,,8204,"446 Seashore Rd,Cape May, NJ 8204",-74.89102,39.0051733
Cape May,Tomorrow's World,609-390-1670,0 to 13,114,Marmora,261 Tuckahoe Rd,,8223,"261 Tuckahoe Rd,Marmora, NJ 8223",-74.661522,39.265796
Cape May,Trinity Nursery School,609-390-0974,0 to 13,96,Marmora,20 N Shore Rd,,8223,"20 N Shore Rd,Marmora, NJ 8223",-74.6458277,39.265902
Cumberland,"All Kids First, Inc.",856-563-1224,0 to 6,367,Vineland,1385 Magnolia Rd,,8361,"1385 Magnolia Rd,Vineland, NJ 8361",-75.001739,39.463802
Atlantic,Little PAL's Preschool,609-646-9586,0 to 13,57,Egg Harbor Township,2594 Tilton Rd,,8234,"2594 Tilton Rd,Egg Harbor Township, NJ 8234",-74.567818,39.41515
Atlantic,Adventures In Learning,609-348-3883,0 to 13,50,Atlantic City,1812 Marmora Ave,,8401,"1812 Marmora Ave,Atlantic City, NJ 8401",-74.440265,39.369552
Atlantic,All God's Children Daycare/PreSchool,609-645-3363,0 to 13,75,Absecon,515 S Mill Rd,,8201,"515 S Mill Rd,Absecon, NJ 8201",-74.522976,39.424714
Atlantic,Atlantic City Day Nursery,609-345-3569,0 to 6,87,Atlantic City,101 N Boston Ave,,8401,"101 N Boston Ave,Atlantic City, NJ 8401",-74.452587,39.354636
Bergen,Young Day School,201-385-2992,0 to 13,60,Dumont,1 Park Ave,,7628,"1 Park Ave,Dumont, NJ 7628",-73.995267,40.938844
Cumberland,Corson Park Day Care and Nursery,856-825-5540,0 to 13,71,Millville,4 N 12th Street,,8332,"4 N 12th Street,Millville, NJ 8332",-75.0238937,39.3954831
Cumberland,DiBiase Infant Care Center,856-691-2780,0 to 13,228,Vineland,2040 E Oak Rd,,8361,"2040 E Oak Rd,Vineland, NJ 8361",-74.9867462,39.4994845
Cumberland,Glory Tabernacle ChildCare & Learning Center,856-451-1552,0 to 13,86,Bridgeton,1018 Buckshutem Rd,,8302,"1018 Buckshutem Rd,Bridgeton, NJ 8302",-75.1933509,39.4141863
Camden,"La Petite Academy, Inc.",856-435-7288,0 to 13,142,Voorhees,711 Haddonfield-Berlin Rd,,8043,"711 Haddonfield-Berlin Rd,Voorhees, NJ 8043",-74.9798234,39.8515093
Camden,Little V.I.P.'s Preschool,856-931-1811,0 to 6,97,Bellmawr,318 E Browning Rd,,8031,"318 E Browning Rd,Bellmawr, NJ 8031",-75.0680119,39.8654183
Atlantic,The Wonder Years Day Care Center,609-926-0020,0 to 13,80,Egg Harbor Township,2155 Ocean Heights Ave,,8234,"2155 Ocean Heights Ave,Egg Harbor Township, NJ 8234",-74.624038,39.369758
Bergen,All Saints Child Care Center,201-947-1288,0 to 13,94,Leonia,150 Park Ave,,7605,"150 Park Ave,Leonia, NJ 7605",-73.9936093,40.8587617
Bergen,All Saints Church Pre-School,201-445-9842,0 to 13,113,Glen Rock,40 Central Ave,,7452,"40 Central Ave,Glen Rock, NJ 7452",-74.122874,40.963616
Bergen,"All About Me, Inc.",201-945-0234,0 to 6,60,Cliffside Park,225 Edgewater Rd,,7010,"225 Edgewater Rd,Cliffside Park, NJ 7010",-73.9899593,40.8212407
Bergen,"All About Me, Inc.",201-569-9112,0 to 13,163,Cresskill,5 Legion Dr,,7626,"5 Legion Dr,Cresskill, NJ 7626",-73.9607202,40.9374634
Bergen,Alphabet Soup Child Care Center,201-296-0022,0 to 13,30,Ridgefield Park,212 Main Street,,7660,"212 Main Street,Ridgefield Park, NJ 7660",-74.025288,40.85714
Bergen,Am-Tree Developmental Nursery School II,201-391-8603,0 to 6,89,Montvale,200 Summit Ave,,7645,"200 Summit Ave,Montvale, NJ 7645",-74.069208,41.05682
Bergen,The Apple Tree Child Development Center,201-447-2266,0 to 13,150,Wyckoff,545 Goffle Rd,,7481,"545 Goffle Rd,Wyckoff, NJ 7481",-74.1476851,40.9743447
Bergen,Barnert Temple Preschool & Family Center,201-848-1027,0 to 6,105,Franklin Lakes,747 Route 208 S,,7417,"747 Route 208 S,Franklin Lakes, NJ 7417",-74.209406,41.013276
Atlantic,Milton and Betty Katz Jewish Comm.Ctr.Childcare & Preschool,609-822-1167,0 to 13,266,Margate,501 N Jerome Ave,,8402,"501 N Jerome Ave,Margate, NJ 8402",-74.5090859,39.3343251
Burlington,BCCAP Head Start Child Dev.Center/Infants & Todders Program,856-764-2562,0 to 6,226,Delanco,2431 Burlington Ave,,8075,"2431 Burlington Ave,Delanco, NJ 8075",-74.9339,40.0578999
Burlington,BCCAP - Lumberton Headstart Center,609-267-9527,0 to 6,270,Lumberton,100 Rte. 38 & Maple Grove Blvd,,8048,"100 Rte. 38 & Maple Grove Blvd,Lumberton, NJ 8048",-76.5652775,42.9230997
Burlington,"Brightest Beginnings, LLC",609-261-0004,0 to 13,94,Lumberton,1632 B Route 38,,8048,"1632 B Route 38,Lumberton, NJ 8048",-74.7869319,39.98115
Camden,Little Minnie's Day Care Center,856-963-6600,0 to 13,45,Camden,579 Clinton Street,,8103,"579 Clinton Street,Camden, NJ 8103",-75.1181626,39.9386969
Camden,Little Bear Daycare,856-833-9874,0 to 13,45,Oaklyn,300 White Horse Pike,,8107,"300 White Horse Pike,Oaklyn, NJ 8107",-75.0798768,39.9052544
Camden,Little Restorers Learning Center,856-629-8527,0 to 13,48,Winslow,403 Andrews Rd,,8081,"403 Andrews Rd,Winslow, NJ 8081",-74.957907,39.720176
Camden,"Loida Development Center, Inc.",856-361-7963,0 to 13,41,Camden,357 Morse Street,,8105,"357 Morse Street,Camden, NJ 8105",-75.0864364,39.9411854
Camden,The Malvern School of Erial,856-784-4100,0 to 13,135,Erial,2920 Erial Rd,,8081,"2920 Erial Rd,Erial, NJ 8081",-75.0066049,39.774633
Essex,"The Community School In Nutley, Inc.",973-661-0789,0 to 13,120,Nutley,100 Vincent Pl,,7110,"100 Vincent Pl,Nutley, NJ 7110",-74.1578996,40.8171645
Essex,"The Community School In Nutley, Inc.",973-667-5446,0 to 6,25,Nutley,200 Highfield La,,7110,"200 Highfield La,Nutley, NJ 7110",-74.14703,40.819192
Atlantic,"One Love Day Care and Preschool, LLC",856-697-0485,0 to 13,28,Buena Vista,868 Harding Hwy,Po Box 713,08310-0713,"868 Harding Hwy,Buena Vista, NJ 08310-0713",-74.911774,39.507091
Atlantic,Robinson Small Learning Center,609-344-2737,0 to 13,66,Atlantic City,715 Baltic Ave,,8401,"715 Baltic Ave,Atlantic City, NJ 8401",-74.4216159,39.3683471
Atlantic,SunnyLand Child Care Center,609-823-4110,0 to 13,60,Ventnor,5034 Wellington Ave,,8406,"5034 Wellington Ave,Ventnor, NJ 8406",-74.477344,39.3530152
Atlantic,Toddler Town Infant Nursery & Preschool,609-561-7300,0 to 6,55,Hammonton,425 S Egg Harbor Rd,,8037,"425 S Egg Harbor Rd,Hammonton, NJ 8037",-74.7959,39.630862
Atlantic,Trinity Learning Center,609-653-9001,0 to 13,189,Egg Harbor Township,7004 Ridge Ave,,8234,"7004 Ridge Ave,Egg Harbor Township, NJ 8234",-74.60726,39.381645
Atlantic,Learning Edge Academy dba Children Academy,609-404-4700,0 to 13,176,Galloway,213 E Jimmie Leeds Rd,,8205,"213 E Jimmie Leeds Rd,Galloway, NJ 8205",-74.5113609,39.472218
Burlington,Chesterbrook Academy,856-234-5557,0 to 13,165,Moorestown,130 Borton Landing Rd,,8057,"130 Borton Landing Rd,Moorestown, NJ 8057",-74.9200637,39.9773489
Burlington,Chesterbrook Academy,856-797-2041,0 to 13,135,Marlton,108 Evesboro-Medford Rd,,8053,"108 Evesboro-Medford Rd,Marlton, NJ 8053",-74.9206706,39.9134177
Burlington,Chesterbrook Academy,856-596-7599,0 to 13,150,Marlton,101 Merchants Way,,8053,"101 Merchants Way,Marlton, NJ 8053",-74.8724,39.8578
Bergen,Playmate Too Child Care Center,973-473-7529,0 to 6,38,Lodi,50 Autumn Street,,7644,"50 Autumn Street,Lodi, NJ 7644",-74.085494,40.872783
Bergen,Pre School at Chabad of Fort Lee,201-886-1238,0 to 6,56,Fort Lee,808 Abbott Blvd,,7024,"808 Abbott Blvd,Fort Lee, NJ 7024",-73.982374,40.8313556
Bergen,"Prime Time of Montvale, Inc.",201-840-0100,0 to 13,170,Edgewater,40 Edgewater Pl,,7020,"40 Edgewater Pl,Edgewater, NJ 7020",-73.9764696,40.8248005
Essex,Community Hills Early Learning Center,973-621-0852,0 to 6,165,Newark,85 Irvine Turner Blvd,,7103,"85 Irvine Turner Blvd,Newark, NJ 7103",-74.1896737,40.7310552
Essex,Congregation B'nai Jeshurun /The Rabbi Barry H.Greene Early,973-379-3177,0 to 6,365,Short Hills,1025 S Orange Ave,,7078,"1025 S Orange Ave,Short Hills, NJ 7078",-74.312537,40.7572274
Essex,Early Learning Center,973-227-4161,0 to 6,100,Fairfield,56 Pier La,,7004,"56 Pier La,Fairfield, NJ 7004",-74.267695,40.883372
Essex,The Early Childhood Center at Temple Emanu-El,973-992-6174,0 to 6,92,Livingston,264 West Northfield Road,,7039,"264 West Northfield Road,Livingston, NJ 7039",-74.334069,40.7878964
Essex,"East Orange Child Development Center, Inc.",973-676-1110,0 to 6,60,East Orange,682-690 Park Ave,,7017,"682-690 Park Ave,East Orange, NJ 7017",-74.2195519,40.7739369
Atlantic,Atlantic Project TEACH,609-645-6748,0 to 2Â½,30,Egg Harbor Twp.,2562 Tilton Rd,,8234,"2562 Tilton Rd,Egg Harbor Twp., NJ 8234",-74.570521,39.420514
Atlantic,"Barbarito and Beyers Preschools, Inc.",609-625-4443,0 to 13,60,Mays Landing,48 Mill Street,,8330,"48 Mill Street,Mays Landing, NJ 8330",-74.735452,39.45133
Atlantic,Creative Learning Pre-School,609-927-4715,0 to 6,160,Linwood,515 W Hamilton Ave,,8221,"515 W Hamilton Ave,Linwood, NJ 8221",-74.584663,39.3425027
Atlantic,"Davis-Holland Learning Center, Inc.",609-909-9979,0 to 13,99,Mays Landing,1445 Cantillon Blvd,,8330,"1445 Cantillon Blvd,Mays Landing, NJ 8330",-74.7039964,39.4444677
Atlantic,English Creek Academy,609-645-9800,0 to 13,246,Egg Harbor Township,600 Scarborough Dr,,8234,"600 Scarborough Dr,Egg Harbor Township, NJ 8234",-74.614543,39.432387
Burlington,Wee Kids Early Learning Center,609-518-7529,0 to 13,129,Hainesport,1299 Route 38 West,,8060,"1299 Route 38 West,Hainesport, NJ 8060",-74.8472138,39.9742012
Camden,Anna's Angels Pediatric Medical Daycare,856-456-3450,0 to 6,20,Gloucester City,238-240 Mercer Street,,8030,"238-240 Mercer Street,Gloucester City, NJ 8030",-75.122257,39.900072
Essex,"Education Station Day Care, Inc.",973-743-7003,0 to 13,124,Bloomfield,156 Washington Street,,7003,"156 Washington Street,Bloomfield, NJ 7003",-74.202637,40.792573
Essex,Essex County College Child Development Center,973-877-3357,0 to 13,150,Newark,303 University Ave,,7102,"303 University Ave,Newark, NJ 7102",-74.1786806,40.7384829
Essex,Iris Berman Nursery School,973-994-2620,0 to 6,60,Livingston,85 W Mt. Pleasant Ave,,7039,"85 W Mt. Pleasant Ave,Livingston, NJ 7039",-74.3190046,40.7948132
Essex,Isaiah House Infants & Tiny Tots Day Care,973-678-5882,0 to 6,25,East Orange,238 N Munn Ave,,7017,"238 N Munn Ave,East Orange, NJ 7017",-74.2053768,40.766355
Essex,It's My Place,973-485-8585,0 to 6,30,Newark,238-240 Berkeley Ave,,7107,"238-240 Berkeley Ave,Newark, NJ 7107",-74.1823034,40.7718071
Essex,Jewish Community Center of Metro West,973-530-3511,0 to 13,357,West Orange,760 Northfield Avenue,,7052,"760 Northfield Avenue,West Orange, NJ 7052",-74.2963088,40.7674616
Atlantic,KidAcademy,609-646-3435,0 to 13,120,Absecon,101 Morton Ave,,8201,"101 Morton Ave,Absecon, NJ 8201",-74.518753,39.4365949
Atlantic,"Kiddie Kastle Academy, LLC",609-272-8000,0 to 13,54,Northfield,515 Tilton Rd,,8225,"515 Tilton Rd,Northfield, NJ 8225",-74.6031723,39.4875442
Atlantic,Kreative Kids of Mays Landing,609-909-1751,0 to 13,44,Mays Landing,1317 Route 50,,8330,"1317 Route 50,Mays Landing, NJ 8330",-74.721389,39.464534
Atlantic,Little Lambs Christian Pre-School,609-965-8070,0 to 13,23,Mays Landing,1202 Crocus Ave,,8330,"1202 Crocus Ave,Mays Landing, NJ 8330",-74.6469214,39.5108434
Camden,Betty & Milton Katz Jewish Community Center PreSchool,856-424-4444,0 to 13,414,Cherry Hill,1301 Springdale Rd,,8003,"1301 Springdale Rd,Cherry Hill, NJ 8003",-74.968004,39.8823539
Camden,The Birchtree Academy,856-547-9333,0 to 6,30,Barrington,112 Clements Bridge Rd,,8007,"112 Clements Bridge Rd,Barrington, NJ 8007",-75.0507774,39.8729935
Camden,Broadway Family Center,856-963-5111,0 to 6,117,Camden,250 Line Street,,8103,"250 Line Street,Camden, NJ 8103",-75.124959,39.936579
Camden,Building Blocks Learning Center,856-875-7588,0 to 13,165,Sicklerville,616 Sicklerville Rd,,8081,"616 Sicklerville Rd,Sicklerville, NJ 8081",-74.990667,39.73085
Camden,Campbell's Family Center,856-342-6319,0 to 13,150,Camden,1 Campbell Pl,,8101,"1 Campbell Pl,Camden, NJ 8101",-75.1080048,39.9395204
Camden,Camden Day Nursery Association,856-365-2200,0 to 13,130,Camden,327 Stevens Street,,8103,"327 Stevens Street,Camden, NJ 8103",-75.1236261,39.9418564
Camden,"Carousel of Learning, Inc.",856-809-0899,0 to 6,51,Berlin,189 Watsontown New Freedom Rd,,8009,"189 Watsontown New Freedom Rd,Berlin, NJ 8009",-74.9291203,39.7740462
Camden,CARE For Me Children's Learning Center,856-663-3094,0 to 13,43,Pennsauken,6002 Westfield Ave,,8110,"6002 Westfield Ave,Pennsauken, NJ 8110",-75.0594555,39.9621166
Essex,"Karate For Youth Child Care Center, Inc.",973-761-6042,0 to 13,120,Maplewood,1812 Springfield Ave,,7040,"1812 Springfield Ave,Maplewood, NJ 7040",-74.2669584,40.7213047
Essex,Kiddie Kampus Child Care Center,973-226-1244,0 to 6,45,Caldwell,108 Bloomfield Ave,,7006,"108 Bloomfield Ave,Caldwell, NJ 7006",-74.2683984,40.8354847
Essex,Executive Kids/DBA Korporate Kids Learning Center,973-857-4648,0 to 13,71,Cedar Grove,155 Commerce Rd,,7009,"155 Commerce Rd,Cedar Grove, NJ 7009",-74.23247,40.864344
Essex,First Class Learning Center,973-680-9000,0 to 13,96,Bloomfield,9-11 Ward Street,,7003,"9-11 Ward Street,Bloomfield, NJ 7003",-74.1995288,40.7947733
Bergen,Glen Rock Jewish Center Nursery School,201-652-6624,0 to 6,97,Glen Rock,682 Harristown Rd,,7452,"682 Harristown Rd,Glen Rock, NJ 7452",-74.1189942,40.9579981
Bergen,The Goddard School for Early Childhood,201-825-2141,0 to 13,213,Ramsey,150 Hilltop Rd,,7446,"150 Hilltop Rd,Ramsey, NJ 7446",-74.1315725,41.077168
Bergen,The Goddard School,201-750-2200,0 to 13,170,Norwood,15 Brook Street,,7648,"15 Brook Street,Norwood, NJ 7648",-73.968343,40.99855
Bergen,The Infant Sweet,201-935-3616,0 to 13,30,Wood-Ridge,55 Humboldt Street,,7075,"55 Humboldt Street,Wood-Ridge, NJ 7075",-74.0879521,40.8437844
Bergen,Infant-Toddler Day Care Center,201-569-5510,0 to 6,30,Englewood,16 William Street,,7631,"16 William Street,Englewood, NJ 7631",-73.9780789,40.895037
Camden,Chesterbrook Academy,856-751-1930,0 to 13,165,Voorhees,9000 Centennial Blvd,,8043,"9000 Centennial Blvd,Voorhees, NJ 8043",-74.9421569,39.8644089
Camden,Kids' Kampus,856-869-3500,0 to 13,91,Westmont,660 W Cuthbert Blvd,,8108,"660 W Cuthbert Blvd,Westmont, NJ 8108",-75.0627019,39.9017691
Camden,KidsNet Learning Center,856-728-6565,0 to 13,146,Sicklerville,665 Chews Landing Rd,,8081,"665 Chews Landing Rd,Sicklerville, NJ 8081",-74.9935929,39.7381653
Camden,KinderCare Learning Center,856-424-4448,0 to 13,240,Cherry Hill,1945 Rt. 70 E,,8003,"1945 Rt. 70 E,Cherry Hill, NJ 8003",-75.033436,39.9189525
Camden,KinderCare Learning Center #228,856-663-2110,0 to 13,99,Pennsauken,4430 River Rd,,8110,"4430 River Rd,Pennsauken, NJ 8110",-75.0755205,39.9628669
Essex,Four-N's DayCare,973-375-3399,0 to 13,42,Newark,1132 S Orange Ave,,7106,"1132 S Orange Ave,Newark, NJ 7106",-74.2359898,40.7455814
Essex,Genesis Pre-School Learning Center,973-371-3160,0 to 13,21,Irvington,1038 Clinton Ave,,7111,"1038 Clinton Ave,Irvington, NJ 7111",-74.2254506,40.725118
Essex,Gospel Christian Academy Childcare & Learning Center,973-399-5099,0 to 13,60,Newark,688-692 Springfield Ave,,7103,"688-692 Springfield Ave,Newark, NJ 7103",-74.2131481,40.7299048
Essex,Happy Kids Child Care Center LLC,973-393-2234,0 to 13,13,West Orange,15 Washington Street,,7052,"15 Washington Street,West Orange, NJ 7052",-74.226806,40.785417
Essex,Harambee Family Academy,973-675-4411,0 to 13,135,East Orange,60 Glenwood Ave,,7017,"60 Glenwood Ave,East Orange, NJ 7017",-74.217732,40.772015
Essex,Harmony Day Care Center,973-351-1313,0 to 13,179,Irvington,1160 Clinton Ave Bldg#1,50 New St Bldg#2,7111,"1160 Clinton Ave Bldg#1,Irvington, NJ 7111",-74.2303644,40.7273327
Ocean,Littlest Angels' Preschool - Day Care,609-693-6010,0 to 13,97,Lanoka Harbor,701 Western Blvd,,8734,"701 Western Blvd,Lanoka Harbor, NJ 8734",-74.19402,39.8719742
Ocean,Meridian Early Childhood Education Center at Ocean Medical C,732-206-8090,0 to 13,75,Brick,980 Rt. 70,,8724,"980 Rt. 70,Brick, NJ 8724",-74.127268,40.0734163
Essex,Temple Beth Shalom Nursery School,973-992-6546,0 to 6,207,Livingston,193 E Mount Pleasant Ave,,7039,"193 E Mount Pleasant Ave,Livingston, NJ 7039",-74.3064673,40.7979854
Essex,Temple B'Nai Abraham - Early School,973-994-7016,0 to 6,302,Livingston,300 E Northfield Road,,7039,"300 E Northfield Road,Livingston, NJ 7039",-74.304948,40.7701078
Essex,Temple Sharey Tefilo-Israel's Iris Family Ctr Early Childhoo,973-763-4600,0 to 6,141,South Orange,432 Scotland Rd,,7079,"432 Scotland Rd,South Orange, NJ 7079",-74.250759,40.753543
Essex,Tiny Blessings II,973-680-1270,0 to 13,29,Bloomfield,369 Berkeley Ave,,7003,"369 Berkeley Ave,Bloomfield, NJ 7003",-74.1858334,40.7931163
Essex,"Traveling Tots', Inc.",973-371-8087,0 to 13,69,Irvington,1397-1399 Springfield Ave,,7111,"1397-1399 Springfield Ave,Irvington, NJ 7111",-74.2478788,40.7237174
Mercer,Kids Corner,609-890-7117,0 to 13,45,Hamilton,2123 US Highway 33,,8690,"2123 US Highway 33,Hamilton, NJ 8690",-74.646623,40.2219849
Mercer,"Kids Kottage Learning Center, Inc.",609-371-0439,0 to 13,120,East Windsor,659 Abbington Dr Ste 404,,8520,"659 Abbington Dr Ste 404,East Windsor, NJ 8520",-74.4887234,40.265952
Mercer,KinderCare Learning Center,609-799-8787,0 to 13,153,West Windsor,1 Kinder Ct,,8550,"1 Kinder Ct,West Windsor, NJ 8550",-74.5947061,40.2956218
Mercer,KinderCare Learning Center,609-689-9900,0 to 13,139,Robbinsville,2285 Hwy 33,,8691,"2285 Hwy 33,Robbinsville, NJ 8691",-74.6357808,40.2195305
Mercer,Knowledge Beginnings,609-720-0045,0 to 13,147,Princeton,450 College Rd E,,8540,"450 College Rd E,Princeton, NJ 8540",-74.5948885,40.3520987
Mercer,Lakeview Child Center at Hamilton,609-890-1442,0 to 13,136,Hamilton,4 Hamilton Health Pl,,08690-3599,"4 Hamilton Health Pl,Hamilton, NJ 08690-3599",-74.6752514,40.2160456
Mercer,Lakeview Child Center at Horizon,609-587-8002,0 to 13,139,Robbinsville,500 Horizon Center,Suite 590,8691,"500 Horizon Center,Robbinsville, NJ 8691",-74.6427187,40.1990363
Mercer,Lakeview Child Center at West Windsor,609-987-0977,0 to 6,141,Princeton,707 Alexander Rd Suite 306,Bldg 2 (Rear),8540,"707 Alexander Rd Suite 306,Princeton, NJ 8540",-74.6383109,40.3231756
Mercer,Lakeview Child Center,609-896-0500,0 to 13,120,Lawrenceville,"4 Princess Rd, Suite 100",,8648,"4 Princess Rd, Suite 100,Lawrenceville, NJ 8648",-74.7092745,40.285053
Mercer,Lakeview Child Center of Ewing,609-530-9696,0 to 13,170,Ewing,1440 Lower Ferry Rd,,8618,"1440 Lower Ferry Rd,Ewing, NJ 8618",-74.7961262,40.28207
Monmouth,Cambridge Children's Academy,732-796-0080,0 to 13,89,Middletown,24 Cherry Tree Farm Rd,,7748,"24 Cherry Tree Farm Rd,Middletown, NJ 7748",-74.1073979,40.4130844
Monmouth,Care on the Square,732-502-8333,0 to 13,134,Asbury Park,601 Lake Ave,,7712,"601 Lake Ave,Asbury Park, NJ 7712",-74.010334,40.215444
Monmouth,Corporate Toddlers,732-919-0949,0 to 6,105,Wall,4900 State Hwy 33,,7753,"4900 State Hwy 33,Wall, NJ 7753",-74.1251007,40.2196403
Monmouth,The Country Day School of Colts Neck,732-252-8908,0 to 6,54,Colts Neck,293 Highway 34,Suite 203,7722,"293 Highway 34,Colts Neck, NJ 7722",-74.170556,40.280507
Monmouth,Miles of Smiles Day Care & Preschool Center,732-203-9766,0 to 13,39,Keyport,14 Luppatatong Ave,,7735,"14 Luppatatong Ave,Keyport, NJ 7735",-74.208372,40.427455
Monmouth,"Monmouth Day Care Center, Inc.",732-741-4313,0 to 6,154,Red Bank,9 Drs. James Parker Blvd,,7701,"9 Drs. James Parker Blvd,Red Bank, NJ 7701",-74.0687254,40.3418741
Monmouth,Montessori Academy of New Jersey,732-922-9171,0 to 6,120,Neptune,3504 Old Asbury Ave,,7753,"3504 Old Asbury Ave,Neptune, NJ 7753",-74.0741998,40.2336489
Monmouth,Monmouth Project TEACH,732-493-4470,0 to 2Â½,26,Ocean Twp,1076 Wayside Rd,,7712,"1076 Wayside Rd,Ocean Twp, NJ 7712",-74.075135,40.26608
Monmouth,Neighborhood Preschool & Learning Ctr.,732-747-0939,0 to 6,42,Red Bank,75 Hwy 35,,7701,"75 Hwy 35,Red Bank, NJ 7701",-74.0784319,40.3596151
Morris,"Roxbury Day Care Center, Inc.",973-584-3030,0 to 13,90,Succasunna,25 Righter Rd,,7876,"25 Righter Rd,Succasunna, NJ 7876",-74.6364872,40.8521777
Morris,Small Society Academy,908-647-3838,0 to 6,90,Stirling,20 Bay Street,,7980,"20 Bay Street,Stirling, NJ 7980",-74.485896,40.667315
Essex,United Neighbors Developmental Child Care Center,973-350-0221,0 to 13,77,Newark,487 Orange Street,,7107,"487 Orange Street,Newark, NJ 7107",-74.1909596,40.7537248
Essex,Washington Street Head Start,973-676-1110,0 to 6,55,East Orange,106 Washington Street,,7017,"106 Washington Street,East Orange, NJ 7017",-74.220013,40.774254
Essex,"West Orange Community House and Boys & Girls Club, Inc.",973-736-1282,0 to 6,180,West Orange,242 Main Street,,7052,"242 Main Street,West Orange, NJ 7052",-74.2331029,40.7858733
Hudson,Bayonne Jewish Community Center(Lauren Wendroff Center),201-436-6900,0 to 13,212,Bayonne,1050 Kennedy Blvd,,7002,"1050 Kennedy Blvd,Bayonne, NJ 7002",-74.1108293,40.6822833
Hudson,Bayonne Family Community Center,201-339-2330,0 to 13,80,Bayonne,259 Ave E,,7002,"259 Ave E,Bayonne, NJ 7002",-74.116615,40.662597
Mercer,The Learning Tree,609-448-1515,0 to 6,40,Hightstown,202 Morrison Ave,,8520,"202 Morrison Ave,Hightstown, NJ 8520",-74.5300195,40.2685494
Mercer,The Learning Depot,609-393-8888,0 to 6,126,Trenton,239 E Front Street,,8611,"239 E Front Street,Trenton, NJ 8611",-74.760189,40.2188988
Middlesex,Big Hugs Childcare & Development Center LLC,732-981-1001,0 to 6,80,Piscataway,255 Old New Brunswick Rd,Suite 110 N,8854,"255 Old New Brunswick Rd,Piscataway, NJ 8854",-74.4742793,40.5521969
Middlesex,Candyland Child Learning Center,732-499-4400,0 to 13,56,Colonia,776 Inman Ave,,7067,"776 Inman Ave,Colonia, NJ 7067",-74.3363072,40.5982024
Middlesex,Children's Choice Child Care and Learning Center,732-613-4488,0 to 13,132,East Brunswick,46 W Ferris Ave,,8816,"46 W Ferris Ave,East Brunswick, NJ 8816",-74.4012157,40.4499268
Middlesex,Children's Center for Learning of South Amboy,732-727-7373,0 to 13,71,South Amboy,148 North Broadway,,8879,"148 North Broadway,South Amboy, NJ 8879",-74.2813354,40.484919
Middlesex,Community Covenant Day Care Center,732-566-6877,0 to 13,30,Laurence Harbor,22 Laurence Parkway,,8879,"22 Laurence Parkway,Laurence Harbor, NJ 8879",-74.2468103,40.4556902
Monmouth,"Pitter Patter, Inc.",732-495-7004,0 to 6,60,Port Monmouth,125 Main Street,,7758,"125 Main Street,Port Monmouth, NJ 7758",-74.098043,40.429906
Monmouth,"Prime Time Day Care, Inc.",732-495-8990,0 to 13,84,Belford,748 Main Street,,7718,"748 Main Street,Belford, NJ 7718",-74.090905,40.421825
Monmouth,Early Years Development Center II,732-335-1604,0 to 6,30,Union Beach,865 Hwy 36,,7735,"865 Hwy 36,Union Beach, NJ 7735",-74.1677823,40.4381176
Morris,The Westmont Montessori School,908-879-6355,0 to 6,120,Mendham,577 Route 24,,7945,"577 Route 24,Mendham, NJ 7945",-74.6401084,40.774388
Ocean,As We Grow Child Care,732-408-1234,0 to 13,40,Whiting,661 Manchester Blvd,,8759,"661 Manchester Blvd,Whiting, NJ 8759",-74.3661997,39.9775894
Ocean,"Beachwood Nursery School, Inc.",732-244-1550,0 to 13,139,Beachwood,1014 Pinewald Rd,,8722,"1014 Pinewald Rd,Beachwood, NJ 8722",-74.206166,39.925914
Hudson,"Borja Day Care Center, Inc.",201-865-0425,0 to 13,50,Union City,307 33rd Street,,7087,"307 33rd Street,Union City, NJ 7087",-74.027446,40.770915
Hudson,Bright Beginnings Early Learning center,201-553-9033,0 to 13,73,West New York,570 - 57th Street,,7093,"570 - 57th Street,West New York, NJ 7093",-74.020053,40.788171
Hudson,Bright Beginners Academy,201-246-8895,0 to 13,41,Kearny,163 - 165 Stuyvesant Ave,,7032,"163 - 165 Stuyvesant Ave,Kearny, NJ 7032",-74.135925,40.775008
Hudson,Busy Place Early Learning Center Too,201-217-1441,0 to 13,37,Jersey City,444 Central Ave,,7307,"444 Central Ave,Jersey City, NJ 7307",-74.0463962,40.7498578
Hudson,The Childrens Studio,973-485-5437,0 to 13,125,Harrison,102 N 5th Street,,7029,"102 N 5th Street,Harrison, NJ 7029",-74.154624,40.747712
Hudson,Bright Horizon at Harborside,201-860-9250,0 to 13,15,Jersey City,100 Plaza One,Harborside Financial Center,07311-3999,"100 Plaza One,Jersey City, NJ 07311-3999",-74.044102,40.7849803
Hudson,Maria's Child Care Center,201-436-4522,0 to 13,20,Bayonne,330 Ave A,,7002,"330 Ave A,Bayonne, NJ 7002",-74.130118,40.659476
Hudson,Mile Square Day Care Center,201-659-6086,0 to 6,124,Hoboken,301 Garden Street,,7030,"301 Garden Street,Hoboken, NJ 7030",-74.0314891,40.7405823
Mercer,Bright Horizons at Hopewell,609-730-3900,0 to 13,290,Pennington,800 North Rd,,8534,"800 North Rd,Pennington, NJ 8534",-74.8035173,40.3049102
Mercer,Millhill Child and Family Development Center,609-989-7333,0 to 13,163,Trenton,101-A Oakland Street,,8618,"101-A Oakland Street,Trenton, NJ 8618",-74.7745604,40.2341897
Mercer,The Montessori School of Hamilton,609-585-1314,0 to 6,93,Hamilton,817 Whitehorse-Hamilton Square,,8610,"817 Whitehorse-Hamilton Square,Hamilton, NJ 8610",-74.6911473,40.2019656
Monmouth,"First Friends, Inc.",732-583-0003,0 to 6,210,Matawan,269 Highway #34,,7747,"269 Highway #34,Matawan, NJ 7747",-89.8987225,43.7132137
Monmouth,First Discoveries Preschool & Day Care,732-747-8500,0 to 13,66,Middletown,70 Hwy 35,,7748,"70 Hwy 35,Middletown, NJ 7748",-74.0788394,40.3590365
Monmouth,Future Years Child Care,732-462-0464,0 to 6,110,Freehold,470 E Freehold Rd,,7728,"470 E Freehold Rd,Freehold, NJ 7728",-74.2670308,40.285341
Monmouth,The Gingerbread House,732-222-0111,0 to 6,60,West Long Branch,904 Broadway,,7764,"904 Broadway,West Long Branch, NJ 7764",-74.0127148,40.2985918
Monmouth,Give & Take Child Care Center,732-493-5900,0 to 13,40,Wanamassa,1701 Kneeley Blvd,,7712,"1701 Kneeley Blvd,Wanamassa, NJ 7712",-74.043352,40.24191
Monmouth,The Goddard School,732-974-8314,0 to 13,149,Wall,1981 Hwy 34,Bldg. G.,7719,"1981 Hwy 34,Wall, NJ 7719",-74.0981932,40.1513629
Monmouth,The Goddard School,732-431-2555,0 to 13,120,Freehold,230 Schanck Rd,,7728,"230 Schanck Rd,Freehold, NJ 7728",-74.2886654,40.237983
Monmouth,The Goddard School,732-571-2244,0 to 13,130,West Long Branch,361 R. Monmouth Rd,,7764,"361 R. Monmouth Rd,West Long Branch, NJ 7764",-74.0200035,40.2841124
Monmouth,The Goddard School of Hazlet,732-335-4400,0 to 13,135,Hazlet,560 Holmdel Rd,,7730,"560 Holmdel Rd,Hazlet, NJ 7730",-74.1926001,40.4210241
Monmouth,The Goddard School,732-303-6996,0 to 13,161,Freehold,350 Pond Rd,,7728,"350 Pond Rd,Freehold, NJ 7728",-74.2919641,40.2833667
Monmouth,The Goddard School at Manalapan,732-446-5155,0 to 6,208,Manalapan,22 Wilson Ave,,7726,"22 Wilson Ave,Manalapan, NJ 7726",-74.3558798,40.304025
Ocean,"Bright Start Nursery School, Inc.",609-660-1800,0 to 13,62,Barnegat,500 Barnegat Blvd N,,8005,"500 Barnegat Blvd N,Barnegat, NJ 8005",-74.2417875,39.758816
Ocean,Cherry Lane Child Care & Learning Center,732-349-7070,0 to 13,155,Toms River,806-808 Main Street,,8753,"806-808 Main Street,Toms River, NJ 8753",-74.2011069,39.960897
Ocean,Creative Starts Academic Learning Center,732-458-3737,0 to 13,76,Brick,225 Old Squan Rd,,8724,"225 Old Squan Rd,Brick, NJ 8724",-74.1120813,40.0756219
Ocean,Forever Young Nursery School,609-971-2900,0 to 13,85,Forked River,1030 Lacey Rd,,8731,"1030 Lacey Rd,Forked River, NJ 8731",-74.215633,39.862641
Ocean,The Goddard School,732-240-2121,0 to 13,194,Toms River,36 Bey Lea Rd,,8753,"36 Bey Lea Rd,Toms River, NJ 8753",-74.2022917,39.9908481
Ocean,The Goddard School,732-920-0229,0 to 13,132,Brick,65 Drum Point Rd,,8724,"65 Drum Point Rd,Brick, NJ 8724",-74.1364098,40.0446968
Ocean,The Goddard School,732-833-8881,0 to 6,135,Jackson,178 W Veterans Hwy,,8527,"178 W Veterans Hwy,Jackson, NJ 8527",-74.3575241,40.1129327
Ocean,The Goddard School,609-971-0051,0 to 13,159,Forked River,214 Lacey Rd,,8731,"214 Lacey Rd,Forked River, NJ 8731",-74.1938372,39.8445745
Ocean,Good Hands Day Care,732-920-7676,0 to 13,131,Brick,582 Plaza Terrace East,,8723,"582 Plaza Terrace East,Brick, NJ 8723",-74.144554,40.056378
Hudson,"N. Hudson Community Action, Corp.Corp.Head Start/Early HS Pr",201-863-7511,0 to 6,174,Union City,401 Palisade Ave,,7087,"401 Palisade Ave,Union City, NJ 7087",-74.0382423,40.7539521
Hudson,New Jersey Kids Infants Day Care Center,201-868-7733,0 to 13,40,North Bergen,6331 Durham Ave,,7047,"6331 Durham Ave,North Bergen, NJ 7047",-74.019932,40.79529
Hudson,New Jersey Kids II Day Care Center,201-798-5017,0 to 13,30,Jersey City,565 Summit Ave,,7306,"565 Summit Ave,Jersey City, NJ 7306",-74.059675,40.733687
Hudson,Children's Garden School and Day Care C,201-868-6797,0 to 13,85,West New York,6500 Bergenline Ave,,7093,"6500 Bergenline Ave,West New York, NJ 7093",-74.0128126,40.7930486
Hudson,The Children's Center at Goldman Sachs,212-357-5558,0 to 13,37,Jersey City,30 Hudson Street,,7302,"30 Hudson Street,Jersey City, NJ 7302",-74.0340201,40.7130594
Mercer,New Beginnings Child Care Center,609-671-9034,0 to 6,52,Ewing,1521 Pennington Rd,,8638,"1521 Pennington Rd,Ewing, NJ 8638",-74.7769119,40.251008
Mercer,New Horizon Montessori of Princeton Junction,609-275-8666,0 to 13,60,Princeton Junction,59 Cranbury Rd,,8550,"59 Cranbury Rd,Princeton Junction, NJ 8550",-74.6152763,40.318111
Mercer,"Noah's Ark Daycare/Preschool, LLC",609-396-7822,0 to 13,97,Trenton,225-227-229 Fulton Street,,8611,"225-227-229 Fulton Street,Trenton, NJ 8611",-74.748354,40.208704
Mercer,Pennington Presbyterian Nursery School,609-737-6622,0 to 6,75,Pennington,13 S Main Street,,8534,"13 S Main Street,Pennington, NJ 8534",-74.7905706,40.3277045
Mercer,Pennington Montessori School,609-737-1331,0 to 6,144,Pennington,4 Tree Farm Rd,,8534,"4 Tree Farm Rd,Pennington, NJ 8534",-74.7994202,40.3361268
Mercer,Princeton Family YMCA Child Development Center,609-497-9622,0 to 6,92,Princeton,Paul Robeson Pl,,8540,"Paul Robeson Pl,Princeton, NJ 8540",-74.6636261,40.3517182
Mercer,Project TEACH - Mercer,609-530-3390,0 to 2Â½,42,Trenton,1600 Stuyvesant Ave,,8618,"1600 Stuyvesant Ave,Trenton, NJ 8618",-74.795135,40.248349
Monmouth,Home Away From Home Academy,732-290-0033,0 to 13,210,Aberdeen,1182 Hwy 34 #6,,7747,"1182 Hwy 34 #6,Aberdeen, NJ 7747",-74.2231802,40.393693
Monmouth,Ivy Hedge Early Childhood Learning Center,732-483-0088,0 to 6,113,Oakhurst,65 Monmouth Rd,,7755,"65 Monmouth Rd,Oakhurst, NJ 7755",-74.0156598,40.2703836
Monmouth,Ivy Hill Preschool,732-530-0060,0 to 6,45,Rumson,15 First Street,,7760,"15 First Street,Rumson, NJ 7760",-74.0130455,40.3745331
Monmouth,Just for Toddlers Preschool Playgroup,732-615-3230,0 to 6,30,Middletown,50 Bray Ave,,7748,"50 Bray Ave,Middletown, NJ 7748",-74.1120426,40.4416861
Monmouth,Kids in DayCare Early Learning Center,732-335-5437,0 to 13,123,Hazlet,60 Hazlet Ave,,7730,"60 Hazlet Ave,Hazlet, NJ 7730",-74.185187,40.422179
Monmouth,Kiddie Academy of Marlboro,732-536-9708,0 to 13,150,Morganville,208 Commercial Ct,,7751,"208 Commercial Ct,Morganville, NJ 7751",-74.2799586,40.3547227
Monmouth,KinderCare Learning Center #832,732-536-9162,0 to 13,99,Manalapan,293 Gordons Corner Rd,,7726,"293 Gordons Corner Rd,Manalapan, NJ 7726",-74.3182357,40.3105339
Monmouth,KinderCare Learning Center #1096,732-577-9254,0 to 13,99,Freehold,205 Elton Adelphia Rd,,7728,"205 Elton Adelphia Rd,Freehold, NJ 7728",-74.2718712,40.2208809
Monmouth,KinderCare Learning Center #226,732-787-7000,0 to 13,100,Belford,245 Leonardville Rd,,7718,"245 Leonardville Rd,Belford, NJ 7718",-74.0877204,40.415021
Monmouth,KinderCare Learning Center #1549,732-223-6210,0 to 13,155,Manasquan,2401 Atlantic Ave,,8736,"2401 Atlantic Ave,Manasquan, NJ 8736",-74.0861619,40.137986
Monmouth,KinderCare Learning Center,609-259-2488,0 to 13,150,Clarksburg,36 Trenton-Lakewood Rd,,8510,"36 Trenton-Lakewood Rd,Clarksburg, NJ 8510",-74.4243187,40.1745493
Monmouth,KinderCare Learning Center,732-544-5440,0 to 13,150,Eatontown,60 Industrial Way E,,7724,"60 Industrial Way E,Eatontown, NJ 7724",-74.0406204,40.2826926
Monmouth,KinderCare Learning Center,732-817-0200,0 to 13,132,Aberdeen,1330 State Route 34,,7747,"1330 State Route 34,Aberdeen, NJ 7747",-74.2161734,40.3851107
Essex,"Little Stages, LLC.",973-762-2679,0 to 13,26,South Orange,60 Taylor Pl,,7079,"60 Taylor Pl,South Orange, NJ 7079",-74.2582641,40.7466713
Essex,"The Little Kingdom, L.L.C.",973-661-4001,0 to 6,30,Nutley,378 Franklin Ave,,7110,"378 Franklin Ave,Nutley, NJ 7110",-74.158489,40.820079
Essex,Red Carpet Kids Child Care LLC,973-259-1990,0 to 13,99,Bloomfield,131 Franklin Street,,7003,"131 Franklin Street,Bloomfield, NJ 7003",-74.1870341,40.7872084
Essex,"Rising Star Learning Center, Inc.",973-923-6999,0 to 13,60,Newark,126 Lyons Ave,,7112,"126 Lyons Ave,Newark, NJ 7112",-74.2108883,40.7083088
Essex,Saint Ann's Community Day Care Center,973-642-4018,0 to 13,173,Newark,110-16th Ave,,7103,"110-16th Ave,Newark, NJ 7103",-74.1995762,40.734789
Essex,Saint James Preschool Program,973-744-0105,0 to 6,111,Upper Montclair,581 Valley Rd,,7043,"581 Valley Rd,Upper Montclair, NJ 7043",-74.2075164,40.8404955
Essex,Saint Paul's Centenary United Methodist Day Care,973-485-1822,0 to 13,45,Newark,739 Mt. Prospect Ave,,7104,"739 Mt. Prospect Ave,Newark, NJ 7104",-74.1644975,40.7775599
Hudson,Doreen's Little People Learning Center,201-864-5774,0 to 6,30,Weehawken,51 Clifton Terrace,,7086,"51 Clifton Terrace,Weehawken, NJ 7086",-74.0176257,40.7749134
Hudson,"First N' Infant Care Center ""Baby World""",201-433-4838,0 to 6,50,Jersey City,485 Ocean Ave,,7305,"485 Ocean Ave,Jersey City, NJ 7305",-74.081262,40.7032274
Hudson,First United Methodist Learning Center,201-865-9030,0 to 13,97,Union City,2213-15 New York Ave,,7087,"2213-15 New York Ave,Union City, NJ 7087",-74.031974,40.7665409
Hudson,The Good Shepherd of the Little Ones,201-997-4399,0 to 2Â½,28,Kearny,777 Kearny Ave,,7032,"777 Kearny Ave,Kearny, NJ 7032",-74.14131,40.778835
Hudson,Grandma's Place Preschool & Daycare,201-758-0253,0 to 13,120,West New York,520 - 66th Street,,7093,"520 - 66th Street,West New York, NJ 7093",-74.01366,40.79399
Hudson,Growing Tree Learning Center II,201-386-1502,0 to 6,65,Jersey City,160 5th Street,,7302,"160 5th Street,Jersey City, NJ 7302",-74.0309524,40.7426475
Hudson,Grow Learn & Play Day Care Center,201-418-8428,0 to 13,22,Jersey City,423 Palisade Ave,,7307,"423 Palisade Ave,Jersey City, NJ 7307",-74.0451019,40.7432057
Mercer,Saint Matthew's Preschool,609-737-6795,0 to 6,84,Pennington,300 S Main Street,,8534,"300 S Main Street,Pennington, NJ 8534",-74.7903889,40.3213904
Mercer,Step Ahead Early Childhood Learning Center,609-278-0154,0 to 13,75,Trenton,1015 Fairmount Ave,,8629,"1015 Fairmount Ave,Trenton, NJ 8629",-74.7336534,40.2152643
Mercer,"Toddler Village Learning Center dba Stony Brook, Inc.",609-737-7877,0 to 13,120,Pennington,15 Yard Rd,,8534,"15 Yard Rd,Pennington, NJ 8534",-74.7991729,40.3403747
Mercer,Tomorrow's Stars,609-585-3959,0 to 6,72,Hamilton,1184 Whitehorse-Hamilton Sq Rd,,8690,"1184 Whitehorse-Hamilton Sq Rd,Hamilton, NJ 8690",-74.687787,40.206432
Mercer,"Umma Daycare Learning Center, Inc.",609-695-8664,0 to 13,49,Trenton,474 Greenwood Ave,,8609,"474 Greenwood Ave,Trenton, NJ 8609",-74.7517529,40.217849
Monmouth,The Lincroft Center for Children,732-530-0643,0 to 13,120,Lincroft,1475 W Front Street,,7738,"1475 W Front Street,Lincroft, NJ 7738",-74.1355101,40.3453836
Monmouth,Little People at Work,732-776-7111,0 to 13,189,Neptune,500 Neptune Blvd,,7753,"500 Neptune Blvd,Neptune, NJ 7753",-74.0369356,40.2201537
Essex,Looking Glass Children's Center,973-338-0264,0 to 13,100,Bloomfield,16 Bellevue Ave,,7003,"16 Bellevue Ave,Bloomfield, NJ 7003",-74.186148,40.8371774
Essex,Love & Learn Preschools,973-450-1160,0 to 13,30,Belleville,80 Franklin Street,,7109,"80 Franklin Street,Belleville, NJ 7109",-74.179255,40.780261
Essex,"Meg Du Day Care Academy, LLC",973-371-7542,0 to 13,57,Irvington,847 Stuyvesant Ave,,7111,"847 Stuyvesant Ave,Irvington, NJ 7111",-74.2439516,40.719976
Essex,"Minnie's Learning Playhouse II,LLC",973-596-9633,0 to 6,30,Newark,315-317 Hawthorne Ave,,7112,"315-317 Hawthorne Ave,Newark, NJ 7112",-74.2066844,40.7173003
Essex,MMO Programs,973-744-6521,0 to 6,165,Montclair,40 S Fullerton Ave,,7042,"40 S Fullerton Ave,Montclair, NJ 7042",-74.2186553,40.812454
Essex,"Montclair Child Development Center, Inc.",973-674-0166,0 to 6,338,Orange,261 William Street,,7050,"261 William Street,Orange, NJ 7050",-74.227606,40.773464
Hudson,Happy Face Day Care Center II,201-963-5202,0 to 13,82,Jersey City,379 Palisade Ave,,7306,"379 Palisade Ave,Jersey City, NJ 7306",-74.0460091,40.741803
Hudson,Harmony Early Learning Center,201-348-2905,0 to 6,180,Secaucus,555 Park Pl,,7094,"555 Park Pl,Secaucus, NJ 7094",-74.0414587,40.7880133
Hudson,Harrison Learning Center,973-484-0950,0 to 13,109,Harrison,620 Essex Street,,7029,"620 Essex Street,Harrison, NJ 7029",-74.1509445,40.7432223
Hudson,Hoboken Day Care 100,201-792-4666,0 to 13,75,Hoboken,124 Grand Street,,7030,"124 Grand Street,Hoboken, NJ 7030",-74.03637,40.739386
Hudson,Home Away III Care Center,201-865-7778,0 to 6,47,Union City,508 25th Street,,7087,"508 25th Street,Union City, NJ 7087",-74.032463,40.768582
Hudson,Hudson County Area Vocational Tech Sch,201-413-5405,0 to 6,24,Jersey City,525 Montgomery Street,Earl W Byrd Center,7302,"525 Montgomery Street,Jersey City, NJ 7302",-74.0589679,40.7212568
Hudson,Hudson Milestones Child Development Center,201-792-1161,0 to 6,52,Jersey City,375 Monmouth Street,,7302,"375 Monmouth Street,Jersey City, NJ 7302",-74.0494991,40.7224376
Hudson,Izabella Learning Center,201-662-8877,0 to 13,56,West New York,414 - 62nd Street,,7093,"414 - 62nd Street,West New York, NJ 7093",-74.012761,40.790627
Hudson,"Jersey City Day Care 100, Inc.",201-432-7645,0 to 13,233,Jersey City,409-415 Halladay Street,,7304,"409-415 Halladay Street,Jersey City, NJ 7304",-74.059108,40.715351
Hudson,Jersey Kids,201-863-8600,0 to 13,98,Union City,2004-2006 New York Ave,,7087,"2004-2006 New York Ave,Union City, NJ 7087",-74.0327222,40.7645968
Mercer,University N O W Day Nursery,609-258-9600,0 to 6,105,Princeton,171 Broadmead St.,,8540,"171 Broadmead St.,Princeton, NJ 8540",-74.6447523,40.3475767
Mercer,Windsor Happy School,609-799-3990,0 to 13,60,West Windsor,"217 Clarksville Rd, Ste 15",,8550,"217 Clarksville Rd, Ste 15,West Windsor, NJ 8550",-74.6416195,40.3000647
Middlesex,"ABC-123, Inc.",732-438-0863,0 to 6,30,Dayton,320 Ridge Rd,,8810,"320 Ridge Rd,Dayton, NJ 8810",-74.4983931,40.373069
Middlesex,Alphabet Kidz of Middlesex,732-469-1133,0 to 13,82,Middlesex,205 Union Ave,,8846,"205 Union Ave,Middlesex, NJ 8846",-74.5198935,40.5679188
Middlesex,Big Hugs LLC Daycare/Preschool,732-764-0020,0 to 13,99,Middlesex,619 Union Ave,,8846,"619 Union Ave,Middlesex, NJ 8846",-74.5084526,40.5773203
Monmouth,Marlboro Jewish Center Nursery School,732-536-2303,0 to 6,224,Marlboro,46 Topanemus Rd,,7746,"46 Topanemus Rd,Marlboro, NJ 7746",-74.2677616,40.3192397
Monmouth,Marlboro Montessori Academy,732-946-8887,0 to 6,180,Wickatunk,257 Hwy 79,,7765,"257 Hwy 79,Wickatunk, NJ 7765",-74.2507272,40.3539178
Monmouth,Meridian Early Childhood Education,732-530-2568,0 to 6,32,Red Bank,(28 Union Street) 1 Riverview,Riverview Medical Ctr,7701,"(28 Union Street) 1 Riverview,Red Bank, NJ 7701",-74.0643065,40.3470543
Middlesex,Woodbridge Child Care Center Avenel Early Learning Center,732-636-1100,0 to 13,130,Avenel,238 Avenel Street,,7001,"238 Avenel Street,Avenel, NJ 7001",-74.2802835,40.5783302
Monmouth,"ABC Spectrum Preschool, Inc.",732-446-4747,0 to 6,99,Manalapan,78 Millhurst Rd,,7726,"78 Millhurst Rd,Manalapan, NJ 7726",-74.3419368,40.2742389
Essex,"Montclair Child Development Center, Inc.",973-783-0220,0 to 6,150,Montclair,33 Fulton Street,,7042,"33 Fulton Street,Montclair, NJ 7042",-74.213528,40.807647
Essex,NCC Harmony House Early Learning Center,973-242-3115,0 to 13,115,Newark,278 S Orange Ave,,7103,"278 S Orange Ave,Newark, NJ 7103",-74.1959794,40.7392302
Hudson,"J P Morgan Chase Back-up CCC, Newport",201-595-7300,0 to 13,70,Jersey City,575 - Washington Blvd,,7310,"575 - Washington Blvd,Jersey City, NJ 7310",-74.035418,40.728793
Hudson,"Jugando Aprendemos Child Care Center, Inc.",201-854-1945,0 to 13,65,West New York,6201 Park Ave,,7093,"6201 Park Ave,West New York, NJ 7093",-74.0072445,40.7879653
Hudson,Junior Prep Pre School,201-864-1856,0 to 13,86,Union City,1003-1007 Summit Ave,,7087,"1003-1007 Summit Ave,Union City, NJ 7087",-74.0506919,40.7488309
Hudson,Kiddee Korner Day Care Management Corporation,201-432-1338,0 to 13,160,Jersey City,304-308 Martin Luther King Dr,,7304,"304-308 Martin Luther King Dr,Jersey City, NJ 7304",-74.080425,40.709357
Hudson,The Kids Place,201-662-4844,0 to 13,64,West New York,128-130 62nd Street,,7093,"128-130 62nd Street,West New York, NJ 7093",-74.0083538,40.7885541
Hudson,"Kids World, Inc.",201-758-1000,0 to 13,131,West New York,5818 Jefferson Street,,7093,"5818 Jefferson Street,West New York, NJ 7093",-74.0208577,40.7901374
Hudson,Kiddie Corner 15th Street,201-867-6915,0 to 13,60,Union City,427-15th Street,,7087,"427-15th Street,Union City, NJ 7087",-74.0361153,40.7615807
Hudson,Kiddie Land Learning Center,201-758-1700,0 to 13,50,West New York,214 61st Street,,7093,"214 61st Street,West New York, NJ 7093",-74.010449,40.788236
Hudson,"Kiddie Castle Day Care Center, Inc.",201-863-0323,0 to 6,30,Secaucus,772 Humboldt Street,,7094,"772 Humboldt Street,Secaucus, NJ 7094",-74.0582456,40.7895837
Hudson,Kids Place II,201-330-8255,0 to 13,43,West New York,5701 Jackson Street,,7093,"5701 Jackson Street,West New York, NJ 7093",-74.0204992,40.7883859
Hudson,Kidz City,201-792-8895,0 to 6,28,Hoboken,834 Washington Street,,7030,"834 Washington Street,Hoboken, NJ 7030",-74.0282731,40.7472681
Hudson,The Learning Zone for Infants and Toddler,201-339-2229,0 to 2Â½,24,Bayonne,763 Ave C,,7002,"763 Ave C,Bayonne, NJ 7002",-74.1134316,40.6736081
Mercer,Hightstown East Windsor YMCA Childcare,609-448-1357,0 to 13,120,Hightstown,230 Mercer Street,,8520,"230 Mercer Street,Hightstown, NJ 8520",-74.5281228,40.2671672
Mercer,Titusville Child Development Center,609-730-2040,0 to 13,195,Titusville,1125 Trenton-Harbourton Rd,,8560,"1125 Trenton-Harbourton Rd,Titusville, NJ 8560",-74.8471603,40.292916
Mercer,Justice Juniors Child Care Center,609-984-9561,0 to 6,45,Trenton,25 Market Street,Hughes Justice Complex,08625-0236,"25 Market Street,Trenton, NJ 08625-0236",-74.7641428,40.2137113
Mercer,Kids Ink,609-771-6040,0 to 13,270,Ewing Township,1676 N Olden Ave,,8638,"1676 N Olden Ave,Ewing Township, NJ 8638",-74.7639453,40.246809
Middlesex,"Little Treasures Learning Center, LLC",908-769-3224,0 to 13,331,Edison,2177 Oak Tree Rd,,8820,"2177 Oak Tree Rd,Edison, NJ 8820",-74.3857106,40.5767886
Monmouth,A B Seas Schoolhouse,732-872-2123,0 to 6,54,Atlantic Highlands,967 Hwy 36,,7716,"967 Hwy 36,Atlantic Highlands, NJ 7716",-74.047199,40.412127
Monmouth,A Little Class PreSchool II,732-502-8906,0 to 13,91,Asbury Park,1235-37 Monroe Ave,,7712,"1235-37 Monroe Ave,Asbury Park, NJ 7712",-74.024479,40.221506
Morris,Bayer Discovery Days,862-404-5701,0 to 13,120,Morristown,25 Whippany Rd Aka 36 Colmbia,,7962,"25 Whippany Rd Aka 36 Colmbia,Morristown, NJ 7962",-74.4815438,40.7967667
Morris,Blue Skies Day Care,973-625-1455,0 to 6,20,Rockaway,83 W Main Street,,7866,"83 W Main Street,Rockaway, NJ 7866",-74.5151516,40.9008446
Morris,Bright Horizons Children's Center,973-829-0768,0 to 13,104,Parsippany,11 Dryden Way,,7054,"11 Dryden Way,Parsippany, NJ 7054",-74.4483069,40.8452995
Morris,Bright Horizons Child Development Center-Mt. Lakes,973-541-4700,0 to 13,109,Mountain Lakes,333 Route 46 West,,7046,"333 Route 46 West,Mountain Lakes, NJ 7046",-74.4591457,40.8859174
Essex,"Neighborhood Child Care Center, Inc.",973-744-4228,0 to 13,85,Montclair,30 Maple Ave,,7042,"30 Maple Ave,Montclair, NJ 7042",-74.211489,40.8061099
Essex,Newark Day Center,973-643-5710,0 to 6,238,Newark,305 Halsey St /41 Hill St.,,7102,"305 Halsey St /41 Hill St.,Newark, NJ 7102",-74.176362,40.732508
Essex,Norjenes I Day Care Center,973-675-0213,0 to 13,45,Orange,365-373 Lincoln Ave,,7050,"365-373 Lincoln Ave,Orange, NJ 7050",-74.241286,40.764902
Essex,The Nursery School of Christ Church,973-743-7582,0 to 6,102,Glen Ridge,74 Park Ave,,7028,"74 Park Ave,Glen Ridge, NJ 7028",-74.2011384,40.798747
Hudson,"Little Angel of New Jersey, LLC",201-863-5593,0 to 13,96,West New York,443 - 54th Street,,7093,"443 - 54th Street,West New York, NJ 7093",-74.0187724,40.7849142
Hudson,The Little Neighborhood Learning Center,201-998-7384,0 to 13,117,Kearny,429 Kearny Ave,,7032,"429 Kearny Ave,Kearny, NJ 7032",-74.1477969,40.7655769
Hudson,Little Darlings,201-271-0972,0 to 13,81,Union City,152 48th Street,,7087,"152 48th Street,Union City, NJ 7087",-74.0175825,40.7797185
Hudson,Little Friends,201-246-7733,0 to 13,150,Kearny,650 Kearny Ave,,7032,"650 Kearny Ave,Kearny, NJ 7032",-74.1433629,40.773399
Hudson,Little Smiles Infant-Toddler Center,201-792-7774,0 to 13,27,Jersey City,40a - 40b Congress,,7307,"40a - 40b Congress,Jersey City, NJ 7307",-74.0415872,40.7493387
Hudson,Alice In Wonderland,201-223-4488,0 to 13,30,Union City,725 - 17th Street,,7087,"725 - 17th Street,Union City, NJ 7087",-74.039248,40.764227
Middlesex,Mae J. Strong Child Development Center,732-249-4299,0 to 6,179,New Brunswick,120 Livingston Ave,,08903-1167,"120 Livingston Ave,New Brunswick, NJ 08903-1167",-74.4479244,40.4896057
Middlesex,"Metuchen Edison Community Day Care, Inc.",732-548-5468,0 to 13,131,Metuchen,200 Hillside Ave,T/A Centenary Child Care Ctr.,8840,"200 Hillside Ave,Metuchen, NJ 8840",-74.3537268,40.5444381
Middlesex,"Middlesex Baby Spa, LLC",732-356-9940,0 to 13,60,Middlesex,484 Union Ave,,8846,"484 Union Ave,Middlesex, NJ 8846",-74.5102877,40.5732642
Morris,Carousel of Learning,973-884-2052,0 to 6,89,Parsippany,244 Kingston Rd,,7054,"244 Kingston Rd,Parsippany, NJ 7054",-74.4386306,40.8605592
Morris,Chatham United Methodist Mother's Morning Out,973-635-7740,0 to 2Â½,22,Chatham,460 Main Street,,7928,"460 Main Street,Chatham, NJ 7928",-74.3907165,40.7444588
Morris,Children's Circle,973-884-3652,0 to 13,104,Parsippany,335 Reynolds Ave,St. Andrew Lutheran Church,7054,"335 Reynolds Ave,Parsippany, NJ 7054",-74.402264,40.843722
Morris,The Child Development Center at Giralda,973-660-7700,0 to 13,160,Madison,Five Giralda Farms,,7940,"Five Giralda Farms,Madison, NJ 7940",-74.4356321,40.7569516
Morris,Cradles To Crayons Childcare-Morristown,973-538-1717,0 to 6,140,Morristown,16 Pine Street,,7960,"16 Pine Street,Morristown, NJ 7960",-74.4780604,40.7952136
Essex,One Two Three Kinderstar Day Sch DBA 123 Kinderstar Day Sch.,973-575-0388,0 to 13,100,Fairfield,123 Fairfield Rd,,7004,"123 Fairfield Rd,Fairfield, NJ 7004",-74.2989008,40.8746226
Essex,"Over the Rainbow Nursery, Inc.",973-744-5905,0 to 6,114,Montclair,32 Pleasant Ave,,7042,"32 Pleasant Ave,Montclair, NJ 7042",-74.221395,40.7961683
Essex,Page Academy II,973-705-9500,0 to 6,30,Newark,426-428 Chancellor Ave,,7112,"426-428 Chancellor Ave,Newark, NJ 7112",-74.2253312,40.7114323
Essex,"The Pampered Child, Inc.",973-226-1278,0 to 13,80,Roseland,182 Eagle Rock Ave,,7068,"182 Eagle Rock Ave,Roseland, NJ 7068",-74.295316,40.821733
Essex,"Precious Littles Early Childhood Development Center, Inc.",973-371-2451,0 to 13,52,Newark,1099 S Orange Ave,,7106,"1099 S Orange Ave,Newark, NJ 7106",-74.234235,40.7458556
Essex,The Prep School (For Babies and Children),973-371-1408,0 to 13,98,Irvington,33 Myrtle Ave,,7111,"33 Myrtle Ave,Irvington, NJ 7111",-74.2274324,40.7276334
Hudson,"A Whole New World Academy, Inc.",201-792-0253,0 to 6,58,Hoboken,721 Washington Street,,07030-5001,"721 Washington Street,Hoboken, NJ 07030-5001",-74.0280517,40.7454085
Hudson,Baby Galileo Preschool & Daycare,201-798-0343,0 to 13,29,Jersey City,360 Grove Street,,7302,"360 Grove Street,Jersey City, NJ 7302",-74.0425694,40.7212584
Hudson,Baby Galileo Preschool & Daycare,201-798-0343,0 to 13,59,Jersey City,175 Newark Ave,Unit L3,7302,"175 Newark Ave,Jersey City, NJ 7302",-74.0454422,40.7210173
Hunterdon,Bright Tomorrows,908-788-6540,0 to 6,84,Flemington,500 Wescott Dr,,8822,"500 Wescott Dr,Flemington, NJ 8822",-74.8607634,40.5337925
Hunterdon,Foundations Preschool,908-730-9195,0 to 6,135,Annandale,14 Lower W St & 11 Humphrey Rd,,8801,"14 Lower W St & 11 Humphrey Rd,Annandale, NJ 8801",-87.250844,30.4123893
Middlesex,Montessori Academy and Learning Center,732-438-0400,0 to 13,49,Dayton,485 Georges Rd Ste 119,,8810,"485 Georges Rd Ste 119,Dayton, NJ 8810",-74.5184726,40.3810504
Middlesex,"New Friends Child Care and Preschool, Inc.",732-572-2022,0 to 13,55,Edison,2027 Woodbridge Ave,,8817,"2027 Woodbridge Ave,Edison, NJ 8817",-74.4011199,40.500612
Middlesex,Noah's Ark Academy,732-985-0001,0 to 13,76,Highland Park,900 Raritan Ave,,8904,"900 Raritan Ave,Highland Park, NJ 8904",-74.4200195,40.5023788
Morris,"Dover Child Care Center, Inc. Infant/Toddler and Pre-School",973-366-0277,0 to 13,90,Dover,50 N Morris Street,,7801,"50 N Morris Street,Dover, NJ 7801",-74.557494,40.886249
Morris,The Learning Experience at Parsippany,973-331-3215,0 to 6,182,Parsippany,1159 Parsippany Blvd,,7054,"1159 Parsippany Blvd,Parsippany, NJ 7054",-74.4222176,40.8675948
Morris,The Learning Experience at Ledgewood,973-927-1446,0 to 13,181,Ledgewood,986 Rt. 46,,7852,"986 Rt. 46,Ledgewood, NJ 7852",-74.6428471,40.8788228
Morris,"Lil Peoples Playhouse, Inc.",908-647-0950,0 to 6,49,Stirling,1288 Valley Rd,,7980,"1288 Valley Rd,Stirling, NJ 7980",-74.493539,40.668141
Morris,"Little Learner Academy, Inc.",973-983-0600,0 to 13,270,Rockaway,25 Greenpond Rd Suite 2,,7866,"25 Greenpond Rd Suite 2,Rockaway, NJ 7866",-74.5022605,40.9134714
Morris,Little Learner Academy,973-691-9430,0 to 13,103,Budd Lake,30 Old Budd Lake Rd,,7828,"30 Old Budd Lake Rd,Budd Lake, NJ 7828",-74.720791,40.889544
Morris,"Little People's Academy, Inc.",973-361-0695,0 to 13,67,Dover,141 E Blackwell Street,,7801,"141 E Blackwell Street,Dover, NJ 7801",-74.55125,40.8852015
Morris,Little Duck Day School,973-822-8100,0 to 6,87,Florham Park,11 Hanover Road & 3 James Stre,,7932,"11 Hanover Road & 3 James Stre,Florham Park, NJ 7932",-74.386741,40.788554
Morris,Little Achievements Child Care Center,973-601-1111,0 to 6,51,Landing,290 Mt. Arlington Blvd,,7850,"290 Mt. Arlington Blvd,Landing, NJ 7850",-74.650869,40.917028
Morris,Little Bears Day Care,973-616-0306,0 to 13,27,Pompton Plains,22 - 24 Evans Pl,,7444,"22 - 24 Evans Pl,Pompton Plains, NJ 7444",-74.2944737,40.9691053
Essex,Rainbow Child Care Center,973-226-3814,0 to 6,99,Roseland,144 Eagle Rock Ave,,7068,"144 Eagle Rock Ave,Roseland, NJ 7068",-74.291488,40.821202
Essex,Kiddie Korner Learning Center,973-484-5166,0 to 13,75,Newark,319-321 Verona Ave,,7104,"319-321 Verona Ave,Newark, NJ 7104",-74.167838,40.783911
Essex,Kiddie World Daycare,973-429-8440,0 to 13,68,Bloomfield,147-151 & 155-157 Grove Street,,7003,"147-151 & 155-157 Grove Street,Bloomfield, NJ 7003",127.089143,37.5607693
Essex,Kids Foundation Day Care Center LLC,973-672-1933,0 to 13,30,East Orange,382 Central Ave,,7018,"382 Central Ave,East Orange, NJ 7018",-74.2171386,40.7566716
Essex,KinderCare at Work #1271,973-535-3336,0 to 13,165,Livingston,100 Old Short Hills Rd,,7039,"100 Old Short Hills Rd,Livingston, NJ 7039",-74.3046527,40.7626389
Hunterdon,The Goddard School,908-237-2050,0 to 13,120,Flemington,4 Minneakoning Rd,,8822,"4 Minneakoning Rd,Flemington, NJ 8822",-74.8550859,40.5282616
Hunterdon,Hunterdon County YMCA Child Learning Center,908-236-0055,0 to 13,75,Annandale,1410 Route 22 West,,8801,"1410 Route 22 West,Annandale, NJ 8801",-74.8527731,40.6441504
Hunterdon,KinderCare Learning Center,908-284-9699,0 to 13,180,Flemington,4 Royal Rd,,8822,"4 Royal Rd,Flemington, NJ 8822",-74.8458069,40.507436
Middlesex,Bright Horizons at Metro Park,732-906-3910,0 to 13,90,South Iselin,200 Wood Ave,,8830,"200 Wood Ave,South Iselin, NJ 8830",-74.3233652,40.5604328
Middlesex,Tutor Time Child Care Learning Center,732-287-8880,0 to 13,180,Edison,"1 Ethel Rd, Ste 105a",Durham Center,8817,"1 Ethel Rd, Ste 105a,Edison, NJ 8817",-74.3959008,40.5394741
Middlesex,Apple Hill Academy Learning Center,732-679-2450,0 to 13,167,Old Bridge,2500 Route 9 S,,8857,"2500 Route 9 S,Old Bridge, NJ 8857",-74.3085675,40.3975748
Middlesex,Unitarian Society Montessori School,732-246-0606,0 to 6,60,East Brunswick,176 Tices La,,8816,"176 Tices La,East Brunswick, NJ 8816",-74.4227974,40.4546169
Middlesex,Our Savior's Child Care Center,732-548-0523,0 to 13,83,Edison,50 Calvert Ave-East,,8820,"50 Calvert Ave-East,Edison, NJ 8820",-74.3529658,40.5634335
Morris,"Loving & Learning Christian Childcare Center, Inc.",973-208-8540,0 to 13,30,Oak Ridge,5669 Berkshire Valley Rd,,7438,"5669 Berkshire Valley Rd,Oak Ridge, NJ 7438",-74.509817,41.030808
Morris,Madison Cooperative Nursery School,973-377-2501,0 to 6,49,Madison,4 Madison Ave,,7940,"4 Madison Ave,Madison, NJ 7940",-74.4194529,40.7607323
Morris,Flanders Valley Country Day School,973-927-7372,0 to 13,82,Flanders,6 Bartley - Chester Rd,,7836,"6 Bartley - Chester Rd,Flanders, NJ 7836",-74.7203497,40.8269746
Morris,The F M Kirby Children's Center,973-377-4945,0 to 13,335,Madison,54 E Street,,7940,"54 E Street,Madison, NJ 7940",-73.9915744,40.9407155
Morris,The Goddard School,973-328-8588,0 to 13,152,Denville,3175 Route 10,Suite # 1,7834,"3175 Route 10,Denville, NJ 7834",-74.52572,40.871999
Morris,The Goddard School,973-584-1154,0 to 13,135,Randolph,1570 Sussex Tpke,,7869,"1570 Sussex Tpke,Randolph, NJ 7869",-74.623903,40.8577749
Morris,Goddard School,973-299-9600,0 to 13,165,Towaco,2 Jacksonville Rd,,7082,"2 Jacksonville Rd,Towaco, NJ 7082",-74.3387616,40.9262295
Morris,The Goddard School,973-598-1555,0 to 13,120,Flanders,244 Rte. 206 S,,7836,"244 Rte. 206 S,Flanders, NJ 7836",-74.7086655,40.8394809
Morris,"HeadStart Community Program of Morris County, Inc.",973-989-1430,0 to 6,176,Dover,18 Thompson Ave,Dover Site,7801,"18 Thompson Ave,Dover, NJ 7801",-74.561046,40.882343
Morris,Imagine and Learn Childcare Center,973-328-8888,0 to 13,28,Dover,15 1/2 Mcfarlan Street,,7801,"15 1/2 Mcfarlan Street,Dover, NJ 7801",-74.55954,40.887853
Essex,West Essex YMCA Peanut Shell Nurs & CCC,973-533-1511,0 to 6,137,Livingston,7 Regent Street Bldg. 706,,7039,"7 Regent Street Bldg. 706,Livingston, NJ 7039",-74.351142,40.800708
Essex,World of Kiddie Kingdom Infant Center,973-373-4100,0 to 13,30,Irvington,1200 Clinton Ave,,7111,"1200 Clinton Ave,Irvington, NJ 7111",-74.2320192,40.7281069
Gloucester,ABC Me Grow Child Day Care and Learning Center,856-740-4769,0 to 13,30,Williamstown,3747 S Black Horse Pike,,8094,"3747 S Black Horse Pike,Williamstown, NJ 8094",-74.921539,39.618808
Gloucester,"Alphabet Corner Preschool, Inc.",856-241-0132,0 to 13,59,Swedesboro,501 Glen Echo Ave,,8085,"501 Glen Echo Ave,Swedesboro, NJ 8085",-75.301852,39.74435
Gloucester,"Bambi Preschool, Inc.",856-478-2468,0 to 13,57,Mullica Hill,621 Ferrell Road,,8062,"621 Ferrell Road,Mullica Hill, NJ 8062",-75.2181454,39.6766949
Gloucester,Beacon Academy,856-582-6199,0 to 13,158,Sewell,570 D Egg Harbor Rd,Harbor Pavilions,8080,"570 D Egg Harbor Rd,Sewell, NJ 8080",-75.062286,39.7343488
Gloucester,Beckett Christian Preschool,856-467-9252,0 to 13,117,Logan Twp,1566 Center Square Rd,,8085,"1566 Center Square Rd,Logan Twp, NJ 8085",-75.354057,39.752074
Hunterdon,Mount Airy Happy Time School,609-397-8041,0 to 13,59,Lambertville,1293 State Route 179,,8530,"1293 State Route 179,Lambertville, NJ 8530",-74.9165445,40.3881136
Mercer,"Forrest Valley Day Care Center, Inc.",609-392-8720,0 to 13,81,Hamilton,409 Ridge Ave,,8610,"409 Ridge Ave,Hamilton, NJ 8610",-74.722326,40.204695
Mercer,The Goddard School of Hamilton,609-631-9311,0 to 13,120,Hamilton Township,2500 Kuser Rd,,8691,"2500 Kuser Rd,Hamilton Township, NJ 8691",-74.658089,40.205656
Mercer,The Goddard School-Hamilton II,609-588-0880,0 to 13,107,Hamilton,3564 Quakerbridge Rd Ste 11,,08619-1206,"3564 Quakerbridge Rd Ste 11,Hamilton, NJ 08619-1206",-74.6807375,40.2575449
Mercer,The Goddard School,609-734-0909,0 to 13,167,Princeton,29 Emmons Dr,,8540,"29 Emmons Dr,Princeton, NJ 8540",-74.6654067,40.3114975
Mercer,The Goddard School,609-883-6800,0 to 13,152,Ewing,158 Scotch Rd,,8628,"158 Scotch Rd,Ewing, NJ 8628",-74.8022651,40.2737984
Middlesex,Peppermint Tree Child Care at Raritan,732-225-7400,0 to 13,120,Edison,165 Fieldcrest Ave,,8837,"165 Fieldcrest Ave,Edison, NJ 8837",-74.3468229,40.5115634
Middlesex,"Plaza Child Care, Inc.",908-753-1505,0 to 6,167,Edison,Tcm Plaza,4 Progress St Ste A3,8820,"Tcm Plaza,Edison, NJ 8820",-74.4120953,40.5187154
Middlesex,"Precious Moments Academy, Inc.",732-424-0770,0 to 13,58,Dunellen,358 North Avenue,,8812,"358 North Avenue,Dunellen, NJ 8812",-74.4642116,40.5911452
Middlesex,"Precious Gifts Day Care Center, LLC",732-424-8110,0 to 6,24,Dunellen,400 New Market Rd,,8812,"400 New Market Rd,Dunellen, NJ 8812",-74.4603635,40.5823066
Morris,Joyful Noise Nursery School & D C C,973-539-9514,0 to 6,163,Morris Plains,400 Speedwell Ave,,7950,"400 Speedwell Ave,Morris Plains, NJ 7950",-74.4812198,40.8240778
Morris,Kindercare Learning Center,908-684-9273,0 to 13,181,Mt Olive,7r Naughright Rd,,7828,"7r Naughright Rd,Mt Olive, NJ 7828",-74.7805663,40.8512098
Morris,King's Kids Day Care Center,973-463-0123,0 to 6,72,Whippany,43 - 45 S Jefferson Rd,,7981,"43 - 45 S Jefferson Rd,Whippany, NJ 7981",-74.436108,40.823668
Morris,Kindercare Learning Center,973-428-3724,0 to 13,181,Whippany,45 Whippany Rd,,7981,"45 Whippany Rd,Whippany, NJ 7981",-74.4142793,40.8195552
Morris,KinderCare Learning Center,973-601-9440,0 to 13,170,Mount Arlington,181 Howard Blvd,,7856,"181 Howard Blvd,Mount Arlington, NJ 7856",-74.6365197,40.9033108
Morris,KinderCare Learning Center,973-625-4555,0 to 13,69,Denville,162 E Main Street,,7834,"162 E Main Street,Denville, NJ 7834",-74.4789788,40.8873098
Gloucester,Chesterbrook Academy,856-589-5800,0 to 13,178,Sewell,279 Egg Harbor Rd,,8080,"279 Egg Harbor Rd,Sewell, NJ 8080",-75.0867588,39.76555
Gloucester,Glassboro Child Development Center-Main,856-881-3331,0 to 13,82,Glassboro,35 S Main Street,,8028,"35 S Main Street,Glassboro, NJ 8028",-75.1126087,39.7011664
Gloucester,The Goddard School,856-256-8200,0 to 13,120,Sewell,3 Plaza Dr,,8080,"3 Plaza Dr,Sewell, NJ 8080",-75.0781533,39.7392565
Gloucester,The Goddard School,856-478-4045,0 to 13,120,Mullica Hill,233 N Main Street,,8062,"233 N Main Street,Mullica Hill, NJ 8062",-75.2100198,39.7550095
Gloucester,The Goddard School in Swedesboro,856-467-8477,0 to 13,176,Swedesboro,553 Beckett Rd Ste 301,,8085,"553 Beckett Rd Ste 301,Swedesboro, NJ 8085",-75.354058,39.762153
Middlesex,"Remsterville Learning Center, The Next Generation, Inc.",609-655-2828,0 to 13,98,Monroe Twp,230 Prospect Plains Rd,,8831,"230 Prospect Plains Rd,Monroe Twp, NJ 8831",-74.4725002,40.3245011
Middlesex,"Robin Jay Nursery School, Inc.",732-254-3505,0 to 13,53,Old Bridge,110 Charles Street,,8857,"110 Charles Street,Old Bridge, NJ 8857",-74.3588296,40.4092257
Middlesex,"Rutgers-Livingston Day Care Center, Inc.",732-445-4747,0 to 6,67,Piscataway,49 Joyce Kilmer Ave,,8854,"49 Joyce Kilmer Ave,Piscataway, NJ 8854",-74.4335922,40.5234563
Middlesex,"Creative Children's Academy., Inc.",732-821-1010,0 to 13,60,North Brunswick,303 Old Georges Rd,,8902,"303 Old Georges Rd,North Brunswick, NJ 8902",-74.4751218,40.4415011
Middlesex,Crossroads Early Learning Center,732-251-3221,0 to 13,100,East Brunswick,114 Old Stage Rd,,8816,"114 Old Stage Rd,East Brunswick, NJ 8816",-74.3826792,40.4092737
Monmouth,Rainbow World Preschool Center,732-370-3222,0 to 13,75,Howell,106 Windeler Rd,,7731,"106 Windeler Rd,Howell, NJ 7731",-74.2217532,40.1685923
Monmouth,Saint Paul's Tender Care Nursery,732-775-1125,0 to 6,84,Ocean Grove,80 Embury Ave,,7756,"80 Embury Ave,Ocean Grove, NJ 7756",-74.009602,40.211332
Monmouth,Saint Ann Child Care Center,732-787-7220,0 to 6,78,Keansburg,121 Main Street,,7734,"121 Main Street,Keansburg, NJ 7734",-74.130253,40.44715
Monmouth,Spice Tree School,732-787-0808,0 to 13,60,Belford,180 Church Street,,7718,"180 Church Street,Belford, NJ 7718",-74.0930579,40.4246774
Gloucester,"Repauno PreSchool Day Care Center, Inc.",856-423-3222,0 to 6,111,Gibbstown,171 N Repauno Ave,,8027,"171 N Repauno Ave,Gibbstown, NJ 8027",-75.29342,39.829288
Gloucester,Shady Lane Child Development Center,856-224-8701,0 to 13,199,Clarksboro,256 County House Rd,,8020,"256 County House Rd,Clarksboro, NJ 8020",-75.211969,39.799515
Gloucester,Small World Infant Center,856-697-3106,0 to 6,30,Newfield,101 Hunter Dr,,8344,"101 Hunter Dr,Newfield, NJ 8344",-75.005508,39.549588
Gloucester,"Teach Your Children, Inc.",856-464-0101,0 to 6,35,Sewell,4 Blackwood Barnsboro Rd,,8080,"4 Blackwood Barnsboro Rd,Sewell, NJ 8080",-75.1336788,39.7697722
Gloucester,Toddlers 'N Tots,856-423-4242,0 to 13,177,Clarksboro,270 Landing Rd,,8020,"270 Landing Rd,Clarksboro, NJ 8020",-75.2264327,39.8032775
Gloucester,Tra-Cee Nursery School (Woodbury Center),856-845-2600,0 to 13,60,Woodbury,67 Oak Street,,8096,"67 Oak Street,Woodbury, NJ 8096",-75.1509164,39.844793
Gloucester,"Tra-Cee Nursery School, Inc.",856-423-5890,0 to 13,60,Paulsboro,337 Mantua Ave,,8066,"337 Mantua Ave,Paulsboro, NJ 8066",-75.2384427,39.8441222
Gloucester,Tutor Time Child Care Learning Center,856-232-7655,0 to 13,180,Sewell,123 Egg Harbor Rd,,8080,"123 Egg Harbor Rd,Sewell, NJ 8080",-75.1011437,39.7810764
Gloucester,Under the Sun Learning Center of West Deptford,856-468-5454,0 to 13,156,West Deptford,1111 Mantua Pike (Rt 45) And,1107 Mantua Pike Suite 708,8051,"1111 Mantua Pike (Rt 45) And,West Deptford, NJ 8051",-75.170117,39.801335
Gloucester,Watch Me Grow Preschool and Child Care,856-224-5868,0 to 13,45,Gibbstown,400 Swedesboro Rd,,8027,"400 Swedesboro Rd,Gibbstown, NJ 8027",-75.2646189,39.817549
Gloucester,Watch Me Learn Preschool/Daycare,856-241-2330,0 to 13,100,Swedesboro,1980 Township Line Rd,,8085,"1980 Township Line Rd,Swedesboro, NJ 8085",-75.351326,39.745942
Gloucester,"Woodbury Child Development Center, Inc.",856-845-2243,0 to 13,142,Woodbury,36 Carpenter Street,,8096,"36 Carpenter Street,Woodbury, NJ 8096",-75.1550632,39.8326373
Mercer,Busy Bee Nursery-Kindergarten School,609-448-3883,0 to 6,73,East Windsor,364 Dutch Neck Rd,,8520,"364 Dutch Neck Rd,East Windsor, NJ 8520",-74.555484,40.272423
Mercer,Children's Center at the Lawrenceville School,609-844-1237,0 to 6,45,Lawrenceville,2500 Main Street,Unit 1832,8648,"2500 Main Street,Lawrenceville, NJ 8648",-74.7290116,40.2945368
Mercer,The Child Development Center at Bristol-Myers Squibb - Penni,609-818-6200,0 to 13,225,Pennington,311 Pennington-Rocky Hill Rd,,8534,"311 Pennington-Rocky Hill Rd,Pennington, NJ 8534",-74.7726578,40.3454322
Mercer,Church of Christ Wee Nursery,609-586-0440,0 to 13,59,Hamilton,2329 Liberty Street,,8629,"2329 Liberty Street,Hamilton, NJ 8629",-74.725948,40.218547
Middlesex,Douglass Psychology Child Study Center,848-932-8881,0 to 6,39,New Brunswick,26 Nichol Avenue Room 27,Davison Hall,8901,"26 Nichol Avenue Room 27,New Brunswick, NJ 8901",-74.437274,40.484384
Middlesex,Edgar Child Care Center,732-632-8633,0 to 6,49,Metuchen,150 Lake Ave,,8840,"150 Lake Ave,Metuchen, NJ 8840",-74.3635132,40.5346041
Middlesex,Edison Branch Childcare Center,732-494-3232,0 to 13,163,Edison,1775 Oak Tree Rd,,8820,"1775 Oak Tree Rd,Edison, NJ 8820",-74.3500025,40.5714026
Middlesex,The First Class,732-463-1900,0 to 13,117,Piscataway,111 Suttons La,,8854,"111 Suttons La,Piscataway, NJ 8854",-74.4351189,40.5284154
Middlesex,Gan Yeladeem Learning Center/David H. Meyer Children's Ctr.,732-545-6484,0 to 6,60,New Brunswick,222 Livingston Ave,,8901,"222 Livingston Ave,New Brunswick, NJ 8901",-74.451607,40.4855188
Middlesex,Garden Friends,732-721-2620,0 to 13,97,Old Bridge,3018 Bordentown Ave,,8859,"3018 Bordentown Ave,Old Bridge, NJ 8859",-74.3482203,40.4255872
Middlesex,The Goddard School of Dayton,732-274-9631,0 to 6,110,Dayton,399 Ridge Rd Ste 1,,8810,"399 Ridge Rd Ste 1,Dayton, NJ 8810",-74.5134046,40.3742089
Middlesex,The Goddard School of Woodbridge,732-283-0090,0 to 13,154,Iselin,400 Gill Lane,,8830,"400 Gill Lane,Iselin, NJ 8830",-74.3130211,40.5601479
Middlesex,The Goddard School of Spotswood,732-723-0900,0 to 13,120,Spotswood,206 Summerhill Rd,,8884,"206 Summerhill Rd,Spotswood, NJ 8884",-74.3864561,40.4029793
Middlesex,The Goddard School of Sayreville,732-525-1300,0 to 13,120,Parlin,3079 Bordentown Ave,,8859,"3079 Bordentown Ave,Parlin, NJ 8859",-74.311876,40.453299
Middlesex,The Goddard School,732-416-9600,0 to 13,135,Old Bridge,1480 Englishtown Rd,,8857,"1480 Englishtown Rd,Old Bridge, NJ 8857",-74.3562688,40.3768934
Middlesex,Grace Child Care Center,732-442-4199,0 to 13,49,Perth Amboy,600 New Brunswick Ave,,8861,"600 New Brunswick Ave,Perth Amboy, NJ 8861",-74.2842652,40.520741
Middlesex,Helping Hands N.S.,732-225-4432,0 to 6,99,Edison,1059 Amboy Ave,,08837-2800,"1059 Amboy Ave,Edison, NJ 08837-2800",-74.3392956,40.5351847
Monmouth,Teddy Bear Learning Center,732-747-8583,0 to 6,98,Lincroft,11 Middletown-Lincroft Rd,,7738,"11 Middletown-Lincroft Rd,Lincroft, NJ 7738",-74.123718,40.332585
Monmouth,Tiny Treasures Nursery School,732-449-4073,0 to 13,60,Spring Lake,2024 New Bedford Rd,,7762,"2024 New Bedford Rd,Spring Lake, NJ 7762",-74.05567,40.149855
Monmouth,Future Generation Academy,732-615-0400,0 to 13,180,Holmdel,2077 Route 35 N,,7733,"2077 Route 35 N,Holmdel, NJ 7733",-74.1380496,40.4117955
Gloucester,Holding Hands Family Child Care and Play Center,856-467-6811,0 to 13,136,Mullica Hill,138 Tomlin Station Rd,,8062,"138 Tomlin Station Rd,Mullica Hill, NJ 8062",-75.2607064,39.7568682
Gloucester,Kid Academy Learning Center,856-875-1333,0 to 13,110,Williamstown,12 S Main Street,,8094,"12 S Main Street,Williamstown, NJ 8094",-74.99479,39.686265
Gloucester,Kid Academy Learning Center,856-589-4498,0 to 13,138,Sewell,444 Hurffville Crosskeys Rd,,8080,"444 Hurffville Crosskeys Rd,Sewell, NJ 8080",-75.0684774,39.7348046
Mercer,"Crayons Nursery School., Inc.",609-896-1997,0 to 6,60,Lawrenceville,110 Federal City Rd,,8648,"110 Federal City Rd,Lawrenceville, NJ 8648",-74.757206,40.2893079
Hudson,"Oasis Child Care, Inc.",201-217-6630,0 to 6,70,Jersey City,260 Hutton Street,,7307,"260 Hutton Street,Jersey City, NJ 7307",-74.0574637,40.7475994
Hudson,"Ocean Avenue Child Dev. Preschool Center T/A ""Baby World""",201-369-9991,0 to 13,90,Jersey City,491 Ocean Ave,,7305,"491 Ocean Ave,Jersey City, NJ 7305",-74.081078,40.70335
Hudson,Palisade Children Center,201-867-0160,0 to 13,60,Union City,4308 Palisade Ave,,7087,"4308 Palisade Ave,Union City, NJ 7087",-74.021737,40.777231
Hudson,"Palisade Children's Center, Inc.",201-865-7174,0 to 13,86,Union City,413-36th Street,,7087,"413-36th Street,Union City, NJ 7087",-74.027251,40.773668
Hudson,Parkside Pre-School,201-533-0570,0 to 13,160,Jersey City,202-206 Central Ave,,7307,"202-206 Central Ave,Jersey City, NJ 7307",-74.0521079,40.7415726
Hudson,Precious Times Children Center,201-861-3999,0 to 13,39,Guttenberg,336-69th Street,,7093,"336-69th Street,Guttenberg, NJ 7093",-74.009068,40.794746
Hudson,"Pretty Faces, Inc.",201-758-0226,0 to 13,84,West New York,532 - 62nd Street,,7093,"532 - 62nd Street,West New York, NJ 7093",-74.015744,40.79196
Hudson,Precious Learning Center,201-332-7702,0 to 6,45,Jersey City,327-329 Martin Luther King Dr,,7305,"327-329 Martin Luther King Dr,Jersey City, NJ 7305",-74.0801454,40.7101714
Middlesex,John Kenney Child Care Center/Heller Park,732-287-4888,0 to 6,108,Edison,211 Mill Rd,,8837,"211 Mill Rd,Edison, NJ 8837",-74.3689192,40.4956947
Middlesex,Johnson & Johnson Child Development Center,732-524-6455,0 to 13,162,New Brunswick,1 Johnson & Johnson Plaza,,8933,"1 Johnson & Johnson Plaza,New Brunswick, NJ 8933",-90.1818441,35.8741076
Middlesex,The Keith Wold Johnson C C C,732-379-5101,0 to 13,366,Edison,2050 Oak Tree Rd,,8820,"2050 Oak Tree Rd,Edison, NJ 8820",-74.3738113,40.5754647
Middlesex,Ken Shirk Child Care Center,732-287-1131,0 to 13,60,Edison,445 Old Post Rd,,8817,"445 Old Post Rd,Edison, NJ 8817",-74.3824225,40.5142548
Middlesex,Kids Count Child Center,732-723-9416,0 to 13,104,Old Bridge,1308 Englishtown Rd,,8857,"1308 Englishtown Rd,Old Bridge, NJ 8857",-74.3582433,40.3891535
Middlesex,"Kiddie Kingdom Child Care & Learning Center, Inc.",732-398-8898,0 to 6,90,North Brunswick,2190 Rte. 130 N,,8902,"2190 Rte. 130 N,North Brunswick, NJ 8902",-74.486571,40.434792
Middlesex,KinderCare Learning Center #1467,732-613-1886,0 to 13,160,East Brunswick,610 Cranbury Rd,,8816,"610 Cranbury Rd,East Brunswick, NJ 8816",-74.4207579,40.4075954
Middlesex,KinderCare Learning Center,732-360-0155,0 to 13,150,Old Bridge,83 Ferry Rd,,8857,"83 Ferry Rd,Old Bridge, NJ 8857",-74.3171918,40.3837526
Middlesex,Kinder College,732-981-0070,0 to 13,112,Piscataway,1110 Centennial Ave,,8854,"1110 Centennial Ave,Piscataway, NJ 8854",-74.4568142,40.5515893
Middlesex,Kinder Kastle,732-321-5558,0 to 13,180,Metuchen,740 Middlesex Ave,,8840,"740 Middlesex Ave,Metuchen, NJ 8840",-74.3698441,40.5388533
